business_id,name,address,city,state,postal_code,latitude,longitude,stars,review_count,main_category,sub_category_1,sub_category_2
fBdZXMF0QyhehC_fri4JZg,Charlie's Down Under,1950 N Buffalo Dr,Las Vegas,NV,89128,36.1950655,-115.2596746,4.0,53,Bars,Sports Bars,Nightlife
FvCGKYkCO4hgUhjmSB9v_w,Motor Certified Co,"7035 W Sahara Ave, Ste 100",Las Vegas,NV,89117,36.1436073,-115.2457084,4.0,11,Motorcycle Dealers,Automotive,""
Z6PHrbbjuUyaRqc5cauWNg,Fletcher Jones Imports,7300 W Sahara Ave,Las Vegas,NV,89117,36.1448873,-115.2530326,4.0,202,Car Dealers,Automotive,""
5RTL-ZQ8LS6gN3TLpJmDkg,Nayar Sonora Taqueria Mexican Food,"3380 E Russell, Ste 107",Las Vegas,NV,89120,36.0871503,-115.1016125,5.0,5,Mexican,Restaurants,""
qdc_pmdSUF2gQ4QFww9gJw,Sprint by Experts Choice,"4145 S Grand Canyon Dr, Ste 107",Las Vegas,NV,89147,36.1145935,-115.3075136,4.0,13,Mobile Phone Accessories,Mobile Phones,Shopping
oJicZ-4Pvb26veSG1B54KA,Reel Smiles Dental,"7785 N Durango Dr, Ste 140",Las Vegas,NV,89131,36.3027192,-115.2822117,4.0,20,Dentists,General Dentistry,Health & Medical
LwQB9H3jZ9wTk24Lr-AnZQ,Spago by Wolfgang Puck,"The Forum Shops At Caesars, 3500 Las Vegas Blvd S, Ste G1",Las Vegas,NV,89109,36.118831,-115.175638,4.0,1056,Pizza,American (Traditional),American (New)
DWgJVCGmeFdDER7Lif164Q,Wild Things,4130 S Sandhill Rd,Las Vegas,NV,89121,36.115371,-115.0928722,4.5,18,Shopping,Jewelry,Home Decor
4TgAjM5Mamp0Qqz1vQz6nw,Cutter Law Firm,"6787 W Tropicana Ave, Ste 268",Las Vegas,NV,89103,36.0998066,-115.2402947,3.5,5,Estate Planning Law,Divorce & Family Law,Lawyers
rnkFJ_B641-JPse9tZas-g,American Eagle Outfitters,3200 Las Vegas Blvd S,Las Vegas,NV,89109,36.1274877688,-115.172866156,2.5,7,Men's Clothing,Shoe Stores,Shopping
7rG2mT_0CSG_iy6LBYv9rw,Old Navy,2180 N Rainbow Blvd,Las Vegas,NV,89108,36.1989589,-115.2407961,3.0,48,Children's Clothing,Women's Clothing,Men's Clothing
xVo_Qy9vS3yszXMUKCuQAg,Lighthouse Tattoo Supply,"1750 S Rainbow Blvd, Ste 18",Las Vegas,NV,89146,36.1527867,-115.2423672,4.5,6,Shopping,Cosmetics & Beauty Supply,Beauty & Spas
h3A6jDf1kvULin-qaSO8Wg,Plaza Offices,"10161 W Park Run Dr, Ste 150",Las Vegas,NV,89145,36.1608307,-115.316928,3.5,3,Shared Office Spaces,Home Services,Professional Services
w7lqZQKc75V3wlTl_kuHDg,Brews & Blues Festival,333 S Valley View Blvd,Las Vegas,NV,89152,36.17046,-115.20942,4.0,5,Festivals,Arts & Entertainment,""
O7uA5Rlo4vIVoh7KthEEXg,Bulwark Exterminating,2129 Industrial Rd,Las Vegas,NV,89102,36.1468991,-115.1624911,5.0,373,Local Services,Pest Control,""
awI4hHMfa7H0Xf0-ChU5hg,Oyster Bar,2411 W Sahara Ave,Las Vegas,NV,89102,36.1427819,-115.1747468,4.5,2125,Restaurants,Bars,Seafood
uNnqRx6HAyEO6ErfQes86A,Supercuts,"8414 W Farm Rd, Tule Springs Shopping Ctr",Las Vegas,NV,89131,36.301049,-115.279572,4.0,25,Hair Stylists,Cosmetics & Beauty Supply,Barbers
uyNZjWy-gBplcImjpowtIw,Southern Cove,1700 E Viking Rd,Las Vegas,NV,89119,36.1185806,-115.1293762,1.5,3,Home Services,Apartments,Real Estate
UX1mbYnDnod1XHf_UBvH8A,9037 Salon,9037 W Sahara Ave,Las Vegas,NV,89117,36.143839,-115.2942607,4.5,178,Beauty & Spas,Hair Salons,Makeup Artists
6-S1RoMAqOL9uKfEamLEsw,White House Black Market,"3663 Las Vegas Blvd S, Ste 340, Miracle Mile Shops",Las Vegas,NV,89109,36.1107323,-115.1722365,4.5,10,Fashion,Women's Clothing,Shopping
idMaZn9ZWPGidH7te2Nikw,IQ Smog Express,6100 W Charleston Blvd,Las Vegas,NV,89146,36.1595363,-115.2243172,3.5,15,Smog Check Stations,Automotive,""
HGkw2jIdChZBDeg3i9zctA,H & M Unlimited,1791 Juniper Twig Ave,Las Vegas,NV,89183,36.009004,-115.12804,3.5,4,Home Services,Handyman,Contractors
opkUFBZYI_Z5pD32CErZ9Q,The Home Depot,4195 S Fort Apache Rd,Las Vegas,NV,89147,36.113644728,-115.29904604,3.0,64,Home Services,Building Supplies,Nurseries & Gardening
yOvl22iVeqK3_EJbu5Qpaw,McDonald's,4804 W Lone Mountain Rd,Las Vegas,NV,89130,36.2471433,-115.2080049,2.0,23,Food,Burgers,Coffee & Tea
JyANaAVhdRkl1ABMvbgNUw,Your Auto Service,3370 E Flamingo Rd,Las Vegas,NV,89121,36.1153043,-115.1016809,1.0,6,Auto Repair,Automotive,""
uOmllan8n6h8WjpSwQCbkA,San Antonio Shoemakers,"1750 N Buffalo Dr, Ste 101",Las Vegas,NV,89128,36.1906225,-115.2588414,5.0,4,Leather Goods,Shoe Stores,Shopping
jK_lUFDDXQIimiTNu3ECmQ,EC Solar Screens & Doors,Inwood Dr,Las Vegas,NV,89145,36.1612457,-115.2827902,5.0,4,Solar Installation,Web Design,Professional Services
vmZZavPJ95XRezZh-5yhxQ,Oasis Pool,3900 Las Vegas Blvd S,Las Vegas,NV,89119,36.0949009265,-115.173214815,3.0,21,Hotels & Travel,Resorts,""
1Fg-OXtRnmBn6OchuprR1A,Air-Care Air Duct Cleaning,3868 E Post Rd,Las Vegas,NV,89120,36.0758273,-115.0902009,3.5,3,Air Duct Cleaning,Heating & Air Conditioning/HVAC,Local Services
Gqgb-PtB0emvs1__y7p3gA,Southwest Lawn Shaping,,Las Vegas,NV,89131,36.3656399,-115.2244853,4.0,4,Landscaping,Gardeners,Irrigation
pEams-rZSbTNb5QVQ7xBQw,O'Reilly's Auto Parts,1250 South Lamb Blvd,Las Vegas,NV,89104,36.1580527,-115.0796859,3.5,5,Auto Parts & Supplies,Automotive,""
-UHf5wUtcLKr90GgroWuqQ,Shadow Rock Park,2650 Los Feliz St,Las Vegas,NV,89156,36.2084693909,-115.014709473,3.5,8,Active Life,Parks,Amateur Sports Teams
wBsZShKsemJ9B2Fxm9ntAw,The Millennium Consulting Group,"5940 S Rainbow Blvd, Ste 3013",Las Vegas,NV,89118,36.081186,-115.241087,5.0,3,Home Services,Real Estate Services,Mortgage Brokers
OWT7dH6fd9wnxn-Wb6ld1g,Green Valley Grocery,8601 W Charleston Blvd,Las Vegas,NV,89117,36.1586057,-115.2806627,3.5,3,Food,Convenience Stores,""
uahhSprc5CJmE8Cm9H_bnw,Dollar Loan Center,"7875 S Rainbow Blvd, Suite 101",Las Vegas,NV,89139,36.0451256,-115.2436311,3.0,4,Financial Services,Check Cashing/Pay-day Loans,""
s7c4wbxNj8s4hHX6oHQ2mA,Convention Magician,,Las Vegas,NV,89139,36.0402159,-115.2244853,5.0,6,Performing Arts,Magicians,Arts & Entertainment
MgSd4P3ATkiywbbraFygHg,Plantone's Italian Market,8680 W Warm Springs Rd,Las Vegas,NV,89148,36.0560801,-115.2808739,4.0,197,Delis,Pizza,Italian
_A7uG2bm-ue91Zvg8KK8Vg,National Survival Store,"4663 Spring Mountain Rd, Ste A",Las Vegas,NV,89102,36.1258855,-115.2044879,3.0,4,Outdoor Gear,Sporting Goods,Shopping
Rzm50fEb4i_9ufyIL7bNEw,Nevada State Escrow,"6325 McLeod Dr, Ste 7",Las Vegas,NV,89120,36.074831,-115.111861,5.0,3,Real Estate Services,Real Estate,Home Services
8xQcE8yyn2icpo-lPXf4Dg,Airport Runway Vista,E Sunset Rd,Las Vegas,NV,89120,36.0715262,-115.1017683,4.5,14,Landmarks & Historical Buildings,Public Services & Government,""
LYWbyu1EQM2o5hwHG5_Ldg,RM Seafood,3950 S Las Vegas Blvd,Las Vegas,NV,89119,36.093063,-115.17631,3.5,866,Sushi Bars,Seafood,Restaurants
MPLfrpdHn9ln_z-ENmoYiA,LA Laser Hair Removal LV,"621 South Tonopah Dr, Ste 150",Las Vegas,NV,89106,36.163552,-115.169555,5.0,123,Hair Removal,Beauty & Spas,Skin Care
JLTaNjAeCx_ILNV07EORNQ,Kinetico Quality Water Systems,1620 W Sunset Rd,Las Vegas,NV,89014,36.0711748,-115.1738015,4.0,67,Home Services,Water Purification Services,Local Services
gQXeLTrzLcsMOr0YjqbJ7Q,Albertsons,5500 Boulder Hwy,Las Vegas,NV,89122,36.1017028,-115.0545606,2.5,35,Convenience Stores,Drugstores,Grocery
PmOiYam7Bt_TLEAKabq2Hw,Anthony's Towing,5375 S Cameron St,Las Vegas,NV,89118,36.0922688,-115.2042308,4.0,25,Automotive,Towing,""
rIcQJRS-rvVJclYuHvaGTA,Port of Subs,"2833 East Desert Inn Rd, Ste 3",Las Vegas,NV,89121,36.1293291,-115.1114772,3.0,23,Sandwiches,Delis,Restaurants
EsXIpj31r_mK6VNw7UQy0w,Fresh Market On The Go,"5757 Wayne Newton Blvd, Ste 21",Las Vegas,NV,89111,36.0883812,-115.1506875,3.5,7,Grocery,Food,""
FRyMXbLyWdFM1VjGCTJsmw,Sams Cycle Supply,3601 N Rancho Dr,Las Vegas,NV,89130,36.2047,-115.191482,3.5,28,Motorcycle Dealers,Automotive,Motorcycle Repair
X_l27mVo4vCh_YRFRlecgw,Artkore,"6035 Harrison Dr, Ste 3",Las Vegas,NV,89120,36.0805606,-115.1127325,4.5,7,Automotive,Professional Services,Graphic Design
GtNseUDq7ASz_GcI1McYoA,Bargain Smokes,"5516 Boulder Hwy, Ste 2D",Las Vegas,NV,89122,36.1009842,-115.0544387,2.0,4,Shopping,Professional Services,Vape Shops
uxPIcOuaFghZAU8mtXBOdQ,Mobile Money Mentor,,Las Vegas,NV,89101,36.1697096,-115.1236952,5.0,4,Financial Advising,Financial Services,Life Coach
TyI7MD0tx1Cpqbi_bsfE2Q,Desert Chiropractic Rehab,"7810 West Ann Rd, Ste 110",Las Vegas,NV,89149,36.2638786,-115.2659113,5.0,7,Sports Medicine,Cryotherapy,Chiropractors
HJ785L7KY6ClATb1KEiXHg,DQ Grill & Chill,"10410 S Decatur Blvd, Ste 100",Las Vegas,NV,89141,36.0002015856,-115.207334681,2.5,12,Restaurants,Fast Food,Desserts
URQQqvHvktnVJCMRE2S5Tg,Jimmy John's,"2595 E Craig Rd, Ste A",Las Vegas,NV,89030,36.239558,-115.114848,3.0,20,Restaurants,Sandwiches,""
sj1mJAS4SR4EM5u1BT0s8w,Efficient Cleaning and Restoration Services,,Las Vegas,NV,89123,36.0357492,-115.1533426,3.5,3,Carpet Cleaning,Local Services,Carpeting
CH5ytWTfEIC2M9Q9TQzj-w,Hamilton & Manuele Orthodontics,"401 N Buffalo Dr, Ste 220",Las Vegas,NV,89145,36.1773745,-115.2606684,5.0,22,Dentists,Cosmetic Dentists,Health & Medical
wRQmmD-hkPUhnRW02j75Ow,Skinworks Sensitive And Acne Skincare,"7656 W Sahara Ave, Ste 130",Las Vegas,NV,89117,36.144978,-115.257921,5.0,26,Skin Care,Beauty & Spas,Acne Treatment
YRwZVTAdvSsQ68jI7NM8jQ,"Carl N. Williams, Jr. M.D","2020 Goldring Ave, Ste 504",Las Vegas,NV,89106,36.1618498,-115.1688021,3.5,3,Health & Medical,Doctors,Cosmetic Surgeons
RLvyPLb8uNeHW6mli1yOZA,Fiiz Drinks Las Vegas,"9773 W Flamingo Rd, Ste 1",Las Vegas,NV,89147,36.1140062,-115.3056816,4.5,34,Beverage Store,Juice Bars & Smoothies,Breakfast & Brunch
lQeeyNh8YwypuBDN1Y8Dyw,Dr. Suds Mobile Detailing,,Las Vegas,NV,89147,36.1148054,-115.2778317,5.0,12,Auto Detailing,Automotive,Car Wash
1q44aWEcDN7uRvA2l8xpvQ,Walgreens,3808 E Tropicana Ave,Las Vegas,NV,89121,36.1007156,-115.0909852,2.0,8,Drugstores,Photography Stores & Services,Beauty & Spas
y4usLFyaw3XyY5sI7tMAOw,Kowalski Lynn MD,,Las Vegas,NV,89101,36.1697096,-115.1236952,2.5,3,Health & Medical,Doctors,""
VA0GbpAN0qpa3bdHJ2a2iA,El Tenampa,556 N Eastern Ave,Las Vegas,NV,89101,36.1721046,-115.1148655,2.0,13,Mexican,Restaurants,""
0nLndWejyCMeNRyumHRUEA,"Zuffa, LLC","2800 W Sahara Ave, Ste 5C",Las Vegas,NV,89102,36.1452494,-115.1795498,3.5,3,Arts & Entertainment,Professional Sports Teams,Active Life
lJickAvhPJ4L6wc7Epyx5A,Curl Up N Dye,"2550 S Rainbow Blvd, Ste E-17",Las Vegas,NV,89146,36.1431923,-115.242116,4.5,107,Hair Salons,Beauty & Spas,""
dX4WRSVR9ZWLcD-igQAuFA,Get Clean LV,,Las Vegas,NV,89121,36.1165487,-115.0881146,5.0,7,Air Duct Cleaning,Local Services,Pressure Washers
O-RTfWQ10wAvqijCRpMGDg,Nail Max,3355 E Tropicana Ave,Las Vegas,NV,89121,36.0989953,-115.1025713,3.0,29,Hair Removal,Beauty & Spas,Waxing
4b6x6JtklgL3krPBPu7ttA,LASIK of Nevada,"1225 S Fort Apache Rd, Ste 145",Las Vegas,NV,89117,36.1569084501,-115.292589036,4.5,7,Doctors,Health & Medical,Optometrists
RF9oGHwfGlx4Mf45nxcFdw,The Clubs At Rhodes Ranch,8975 W Warm Springs Rd,Las Vegas,NV,89148,36.054435,-115.287549,3.5,31,Home Services,Real Estate,Apartments
i85ieWNVIsetPiPJz0RU1g,Jjc Clocks and Antiques,1310 S Main St,Las Vegas,NV,89104,36.155679,-115.154125,4.5,8,Shopping,Antiques,Local Services
ujVvI7_HZPUKagnBddPHPA,The Resort On Mt Charleston,2275 Kyle Canyon Rd,Las Vegas,NV,89124,36.3257717,-115.3289816,3.0,221,Hotels & Travel,Ski Resorts,Event Planning & Services
ZyOLevFrV7Vxi0OOS3lf-w,Fork & Burger,"6280 S Valley View Blvd, Ste 100",Las Vegas,NV,89118,36.0756714889,-115.188952088,4.5,75,American (Traditional),Restaurants,Breakfast & Brunch
hy1TkGNnDuHfUHf_7kUqRw,Habaneros Taco Grill 2,604 N Rainbow Blvd,Las Vegas,NV,89107,36.1793058477,-115.241916363,4.0,41,Restaurants,Fast Food,Tacos
POIowl4F1ZiHdKLnx__ulw,Chipotle Mexican Grill,"6211 N Decatur Blvd, Ste 110",Las Vegas,NV,89130,36.2717661003,-115.207065941,3.5,35,Fast Food,Restaurants,Mexican
qgeCgPdQslfsr-PXgAsCrQ,Jenna Montijo - One Nevada Realty Services,2645 S Mojave Rd,Las Vegas,NV,89121,36.1418981,-115.1056572,5.0,3,Home Services,Real Estate Agents,Real Estate
wQq2b5-NsJseMaCJ768ZXA,Straight Flush CrossFit,"8544 Blue Diamond Rd, Ste 110",Las Vegas,NV,89178,36.0216397,-115.2776613,5.0,11,Fitness & Instruction,Interval Training Gyms,Active Life
_881w3eUgTJiM-sKvY3DfA,Diesel,3500 Las Vegas Boulevard,Las Vegas,NV,89109,36.1218721,-115.1804115,2.5,5,Women's Clothing,Accessories,Fashion
Div_tfuMosPo5mPj21nLQQ,Posterhead Signs,"3560 Polaris, Ste 8",Las Vegas,NV,89103,36.124766,-115.18498,5.0,28,Printing Services,Signmaking,Advertising
gOCizq2d2ku1LKKX-byeDw,Clinical Pathology Laboratories,"6295 S Rainbow Blvd, Ste 103",Las Vegas,NV,89118,36.0745775,-115.2431254,3.0,12,Pathologists,Health & Medical,Laboratory Testing
zBpCOoy5w6c6N9x6Sq9_QA,Notary on Demand LV,,Las Vegas,NV,89127,36.18,-115.15,5.0,7,Local Services,Professional Services,Notaries
8-XYhih_12vBw4_IIvxiHQ,Southern Nevada Pain Center,"6950 W Desert Inn Rd, Ste 110",Las Vegas,NV,89117,36.1298756,-115.2445306,2.5,13,Doctors,Health & Medical,Pain Management
dtJYPbWv0cli924MqKRNUw,Divine Events,"6380 S Valley View Blvd, Ste 316",Las Vegas,NV,89118,36.074147,-115.189719,5.0,4,Event Planning & Services,Party & Event Planning,Caterers
SUTTl_NCJb5JYdlMBnuVxg,Wetzel's Pretzels,"3700 Flamingo, #18",Las Vegas,NV,89103,36.1176493,-115.188279,3.5,13,Pretzels,Food,""
xj0UTEuHMKcpEoDg9UwpGQ,Vegas Suds Carwash,3810 N Jones Blvd,Las Vegas,NV,89108,36.228268,-115.225082,4.0,17,Automotive,Car Wash,""
fF0-vRQCmNBphQ46PiQzUQ,Totally Made Over,"4760 S Pecos Rd, Ste 212",Las Vegas,NV,89121,36.170565694,-115.139822228,4.0,6,Hair Salons,Shopping,Cosmetics & Beauty Supply
rLN-jsC7_SfQkxDEMeDBwg,Papa Murphy's,"8426 Farm Rd, Ste 110",Las Vegas,NV,89131,36.3013607105,-115.282188144,3.0,21,Salad,Pizza,Restaurants
cqpjuasqGOGVkrt1poQ9ZQ,Jenny's Dispensary,5530 N Decatur Blvd,Las Vegas,NV,89130,36.2603710667,-115.206734774,3.0,24,Medical Cannabis Referrals,Shopping,Cannabis Dispensaries
nW2I9DVZ7ndUg8D1kxk9Sw,Silver Hills Health Care Center,3450 N Buffalo Dr,Las Vegas,NV,89129,36.2233703,-115.2594674,3.0,17,Rehabilitation Center,Medical Centers,Health & Medical
ZvOmAC399U1qPFAPMPmSLw,Craig Rd Barber Shop,"4955 E Craig Rd, Ste 8",Las Vegas,NV,89115,36.2400118,-115.065612,4.5,9,Barbers,Beauty & Spas,""
iiIXOU0L-KUCjuNES2e6Cw,Rubio's,"9310 W Sahara Ave, Ste 100",Las Vegas,NV,89117,36.144951,-115.298961,4.0,96,Fast Food,Restaurants,Seafood
KmrSFmgklopFLxA5h8wS0w,Voss Automotive Group,3115 Fremont St,Las Vegas,NV,89104,36.1504899,-115.1058573,5.0,7,Auto Repair,Auto Upholstery,Automotive
Bwmbcu6m5HwYzoTjcgGYSw,Supercuts,"7065 W Ann Rd Ste 140, Rio Vista Plaza",Las Vegas,NV,89130,36.2612286629,-115.247529122,4.0,10,Cosmetics & Beauty Supply,Hair Salons,Hair Stylists
y3EkxHO-qPODtzs_D6E7Rw,Pearl Ocean,300 W Sahara Ave,Las Vegas,NV,89102,36.1440868,-115.1608924,4.0,148,Barbeque,Cantonese,Chinese
AVZpYhn-BbimW9PotQS6AA,Ruby Eyebrow Threading,6895 E Lake Mead Blvd,Las Vegas,NV,89156,36.1942856861,-115.02558244,3.0,7,Beauty & Spas,Eyebrow Services,Hair Removal
2D4mJtcmvmL_9KzV5syLjg,Martial Arts Center MAC Taekwondo,"8090 Blue Diamond Rd, Unit 150",Las Vegas,NV,89178,36.0209176,-115.2672983,5.0,6,Fitness & Instruction,Martial Arts,Active Life
3yVdBMWc6zaPHsXcpDwzhQ,Pioneer Park,7449 Braswell Dr,Las Vegas,NV,89128,36.185951,-115.254378,3.5,3,Active Life,Parks,""
CIbhERjr5vvvKViMeBF8tg,Palm Medical Group,"3150 N Tenaya Way, Ste 415",Las Vegas,NV,89128,36.2167718,-115.2495743,3.0,6,Health & Medical,Doctors,Osteopathic Physicians
2NAWda5gQs4CwbOt6hYaYg,The Retina Center At Las Vegas,6839 W Charleston Blvd,Las Vegas,NV,89117,36.1586099,-115.2451251,2.5,4,Ophthalmologists,Doctors,Optometrists
_V0yJdpXrbdKzBDoVSJGWA,Silver Sevens Hotel and Casino,4100 Paradise Rd,Las Vegas,NV,89169,36.1141583,-115.1535379,2.5,319,Hotels & Travel,Hotels,American (Traditional)
LsZAdstiRBP_FAvvuAiE5Q,SimonMed Imaging,"3061 South Maryland Pkwy, Ste 102",Las Vegas,NV,89169,36.133982,-115.1368702,4.5,6,Health & Medical,Diagnostic Services,Diagnostic Imaging
EB0SR4DGewe6jcHo_0fwNw,Project Management Academy,"Regus Business Center, 3960 Howard Hughes Pkwy, Suite 500",Las Vegas,NV,89169,36.116821,-115.156943,5.0,8,Tutoring Centers,Education,Test Preparation
q-zBlEnVmgHjqhu9d0asJA,Wrap City Las Vegas,"3871 S Valley View Blvd, Ste 3",Las Vegas,NV,89103,36.1197586826,-115.190530464,5.0,14,Graphic Design,Signmaking,Automotive
wFdUTh7MCN-gV-m-OFJD6g,Rims Enterprises,2620 Regatta Dr--Ste 102,Las Vegas,NV,89128,36.2074847,-115.2682033,5.0,3,Real Estate,Property Management,Home Services
b4a9xvX1LtwcZx6a5SiFVw,Port of Subs,"9255 S Eastern Ave, Ste 300",Las Vegas,NV,89123,36.021123,-115.119086,4.0,31,Sandwiches,Restaurants,Delis
vfrTGTqBjpQKupqI4lCQtg,Quality Moving,"6360 S Pecos Rd, Ste 13",Las Vegas,NV,89123,36.0728695,-115.099769,5.0,3,Movers,Home Services,""
hLzQnVDR1L8EdTvKCF20fw,Wells Fargo Bank,"445 E Windmill Ln, Ste 2D",Las Vegas,NV,89123,36.0413968785,-115.153410264,3.0,15,Financial Services,Banks & Credit Unions,""
jLxeBgWhLRbII2ACkgH1Sg,La Belle Terre Bread French Bakery Café,"8390 W Sahara Ave, Ste 130",Las Vegas,NV,89117,36.1443811,-115.2742995,4.0,524,Bakeries,Restaurants,Breakfast & Brunch
D2Xe6lClUyo88cZEbbH5Nw,MC Mojave Construction,5001 Jay Ave,Las Vegas,NV,89130,36.222741,-115.210165,4.5,3,Shopping,Home & Garden,Interior Design
YY0zHGIqBIVcIpjVmOu54A,Starbucks,5757 Wayne Newton Blvd,Las Vegas,NV,89119,36.0838389,-115.148385,2.5,7,Food,Coffee & Tea,""
LArP8v1EOGTt5Qy_AWNjRw,CrossFit Social City,"3665 S Fort Apache Rd, Ste 104",Las Vegas,NV,89147,36.1232128,-115.2979709,5.0,7,Health & Medical,Interval Training Gyms,Fitness & Instruction
MQ-WejDXsaCP0z1qT4R33g,Az Liquor,9827 W Tropicana Ave,Las Vegas,NV,89147,36.0999427216,-115.306629315,4.0,5,Beer,Wine & Spirits,Food
xOZd6roDjtb_ILWEwUKfOQ,JCPenney Portraits,4485 S Grand Canyon Dr,Las Vegas,NV,89147,36.108512,-115.309295,2.0,24,Event Planning & Services,Session Photography,Photographers
8PYqiPwo9ZtaN-P9XplP1w,Sugar Factory,5757 Wayne Newton Blvd,Las Vegas,NV,89119,36.082074,-115.137213,2.0,4,Shopping,Candy Stores,Souvenir Shops
1eWShhnZqavKcKcA8noVOg,Elite Carpet Care,"8255 S Las Vegas Blvd, Ste 313",Las Vegas,NV,89123,36.039847,-115.176084,4.0,4,Carpet Cleaning,Professional Services,Home Services
kPV1DlXSkcXY5G8r2LLmEA,Ichabod's Lounge,3300 E Flamingo Rd,Las Vegas,NV,89121,36.1166840723,-115.103589329,4.0,160,Nightlife,Restaurants,Bars
CorrByydi35r-6SvmhYFHA,Glammed Up,,Las Vegas,NV,89109,36.128561,-115.1711298,5.0,35,Beauty & Spas,Hair Salons,Makeup Artists
P7pxQFqr7yBKMMI2J51udw,Holsteins Shakes and Buns,3708 Las Vegas Blvd S,Las Vegas,NV,89109,36.109842,-115.174603,4.0,2771,American (Traditional),Burgers,Bars
CLdn-jOifbwtoKUvy9V_0Q,Venezia,3355 Las Vegas Blvd S,Las Vegas,NV,89109,36.1214762806,-115.169934999,3.5,27,Hotels & Travel,Hotels,Event Planning & Services
PpIviacdzQbAJU8-Pl9iCg,Yesterday - A Tribute to the Beatles,3801 Las Vegas Blvd S,Las Vegas,NV,89109,36.0990448,-115.1704519,2.5,3,Arts & Entertainment,Performing Arts,""
ZL15NFVdN7hG0NUXppkU9Q,The Habit Burger Grill,"3200 S Las Vegas Blvd, Ste 3060",Las Vegas,NV,89109,36.1272241,-115.1715512,3.5,5,Burgers,Restaurants,""
8pRVvHd7GDNLbWCUcaX36A,Aardvark Affordable,8331 Campana Drive,Las Vegas,NV,89147,36.1030447969,-115.273070954,5.0,109,Home Cleaning,Home Services,Shopping
fGt3udZE8r9JkbfMZnawXg,Super Summer Theatre,Spring Mountain Ranch State Park,Las Vegas,NV,89004,36.071025,-115.454147,4.5,63,Performing Arts,Arts & Entertainment,""
ii4tGOHW2uWA0g-VKw6wNw,Psychic & Tarot Card Reading,4921 Alta Dr,Las Vegas,NV,89107,36.1662339,-115.2077971,5.0,9,Psychics,Arts & Entertainment,Supernatural Readings
eSgl0p7qFmQ4Wb4kfE05kQ,G & G Autohaus,325 S Decatur Blvd,Las Vegas,NV,89107,36.1686552974,-115.204844229,4.5,36,Transmission Repair,Auto Repair,Automotive
Z_GGSlPq2iYXDq8gyobrhA,Gucci,"3720 S Las Vegas Blvd, Ste 200",Las Vegas,NV,89158,36.1085405835,-115.17394047,4.0,10,Fashion,Shopping,Men's Clothing
r4iis9DWfwmK1h6JT9PnAw,The Reset Project,520 Fremont St,Las Vegas,NV,89101,36.159951,-115.147464,5.0,3,Event Planning & Services,Fitness & Instruction,Active Life
2umY2rHabkAnsYNe6Rpj9w,Icon Dental,6040 S Rainbow Blvd,Las Vegas,NV,89118,36.0790891,-115.2422126,2.5,3,Dentists,Health & Medical,General Dentistry
-sGIBo2YdLRu26jwjeQKrA,Elite Investigations,7435 S Eastern Ave,Las Vegas,NV,89123,36.055832,-115.120023,5.0,3,Professional Services,Private Investigation,""
JKdmI3olc-hjjiJRH5ua7Q,The Paramount Apartments,8610 S Maryland Pkwy,Las Vegas,NV,89123,36.0337353,-115.1356244,3.5,32,Home Services,Real Estate,Apartments
nR8nBZi-bMi2aYCaox_WxA,Umc Quick Care,61 N Nellis Blvd,Las Vegas,NV,89110,36.160922,-115.0635973,3.0,6,Health & Medical,Urgent Care,""
HaPwC4nxs6RPfe1pAQkQ4A,Mastrioni's,"3330 S Hualapai Way, Ste 160",Las Vegas,NV,89117,36.1291519,-115.3145487,4.0,334,Italian,Restaurants,Seafood
ekFJGMQtPBA67IH5PH3h5w,A Track Out Solution,2711 Rimbey St,Las Vegas,NV,89115,36.209028,-115.073444,2.5,3,Professional Services,Junk Removal & Hauling,Local Services
wLsbD1miivHM3Y-3p0_2zA,Headlinerz Barbershop,"2675 S Eastern Ave, Ste 300",Las Vegas,NV,89169,36.1411047,-115.1187431,4.5,21,Barbers,Beauty & Spas,""
KskYqH1Bi7Z_61pH6Om8pg,Lotus of Siam,"953 E Sahara Ave, Ste A5",Las Vegas,NV,89104,36.14345,-115.14278,4.0,3964,Car Dealers,Thai,Automotive
QbXpzWS4SuKet92hWxfeSA,Dynamite,3200 Las Vegas Blvd S,Las Vegas,NV,89109,36.126457993,-115.169923827,3.5,3,Accessories,Shopping,Fashion
5PxmfnyL_q6_Gbt46dozRg,Aargon Collection Agency,8668 Spring Mountain Rd,Las Vegas,NV,89117,36.1274842545,-115.281104935,2.0,4,Financial Services,Professional Services,Employment Agencies
wjrRAoqV0SrOjgiQlco2Jg,Massage Well,"5300 W Sahara Ave, Ste 203",Las Vegas,NV,89146,36.1452753,-115.21375,4.0,67,Health & Medical,Shopping,Yoga
nRdv6Gyg8AThLEj2jz9CCQ,Indigo Valley Church,"2685 South Rainbow Blvd, Ste 108",Las Vegas,NV,89146,36.1409949,-115.243574,5.0,4,Religious Organizations,Churches,""
4rbPNY4J5ychtucJuHmu9A,Best Reps,"6440 Sky Pointe Dr, Ste 140-545",Las Vegas,NV,89131,36.279138,-115.2621222,5.0,6,Professional Services,Event Planning & Services,Party & Event Planning
zMxSWlbdGYYm3Qr5aaVFuQ,Lush and Lacquered,"10300 W Charleston Blvd, Ste 17",Las Vegas,NV,89135,36.1606428,-115.320685,5.0,13,Nail Salons,Beauty & Spas,""
8YjfILsV0xu84t0aTiceig,Papa Murphy's,"10180 West Tropicana, Suite 133",Las Vegas,NV,89147,36.1008343305,-115.314655436,4.0,46,Pizza,Restaurants,Salad
MxWYz5KklI9gtOnlF8CYpg,Ace Banners,3480 E Patrick Ln,Las Vegas,NV,89120,36.0794028,-115.1002442,4.0,6,Professional Services,Signmaking,""
izvmwI3kSYIt-a6vA4gUMw,Port of Subs,"1306 W Craig Rd, #K",Las Vegas,NV,89032,36.2409489,-115.1592072,3.0,15,Sandwiches,Restaurants,Delis
eRdB1dI7MG7khAiKHyAfSQ,Las Vegas Modern Kung Fu,4050 Vanessa Dr,Las Vegas,NV,89103,36.1252357,-115.1939321,5.0,3,Active Life,Chinese Martial Arts,Martial Arts
q3dJQtwZQrrurNT-1bNKgQ,Capo's Italian Cuisine,5675 W Sahara Ave,Las Vegas,NV,89146,36.143974,-115.219248,4.0,1089,Restaurants,Italian,""
b1WGIdd_oSwGYZtC769Shw,Rachel's Kitchen,"7010 N Durango Dr, Ste 140",Las Vegas,NV,89149,36.2884223309,-115.286549547,3.5,303,Breakfast & Brunch,Sandwiches,Restaurants
iWieDCCRKyZCqZHv3iuKQQ,Sam's Club Optical,8080 W Tropical Pkwy Frnt,Las Vegas,NV,89149,36.273188,-115.271033,2.0,3,Optometrists,Fashion,Health & Medical
Im_fU7Z1cyebxB_G3WeCng,Pink Lotus Nails,"4770 Blue Diamond Rd, Ste 150",Las Vegas,NV,89139,36.0350866,-115.2052689,3.0,67,Beauty & Spas,Nail Salons,""
YJi-xBxsTgegLF116qjQWA,Mountain View Plaza,3400 S Jones Blvd,Las Vegas,NV,89146,36.1270201893,-115.224508457,4.0,4,Restaurants,Nightlife,Shopping
9SzxzTb2hQ7oVkWGm5M4ug,The UPS Store,"4001 S Decatur Blvd, Ste 37",Las Vegas,NV,89103,36.1182771,-115.2097984,3.5,14,Printing Services,Shipping Centers,Local Services
YzFCu-UMblGfVlY2pa6K6g,Altered States Wellness Center,71 N Sandhill Rd,Las Vegas,NV,89110,36.1622517,-115.0895583,5.0,4,Day Spas,Beauty & Spas,""
03Yt7kMeYihN_y6ptiXxyQ,Del Taco,6311 Centennial Center Blvd,Las Vegas,NV,89149,36.2738452633,-115.268174694,3.0,21,Fast Food,Restaurants,American (Traditional)
2bSyNMam79SlwiHwQD6RGg,Subway,2551 S Durango Dr,Las Vegas,NV,89117,36.143907,-115.279227,3.5,17,Sandwiches,Restaurants,Fast Food
-aQJUU104Sc9vuAV_EtXrA,Advanced Litigation Services,"320 E Charleston Blvd, Ste 105",Las Vegas,NV,89104,36.158565,-115.150291,4.5,6,DUI Law,General Litigation,Divorce & Family Law
Bjxa6TKlYsm6Lp6s_3SDwQ,Freedom  Life Grace Church,"4505 W Hacienda Ave, Ste G2",Las Vegas,NV,89118,36.0936054,-115.201663,5.0,3,Religious Organizations,Community Service/Non-Profit,Churches
vlSZ8rprcOkgez314T-aVw,Enterprise Rent-A-Car,"3620 E Flamingo Rd, Ste 6",Las Vegas,NV,89121,36.1158141,-115.0961763,3.0,12,Car Rental,Hotels & Travel,""
71bwX-tbmq4su8H7Q9oLOQ,PT's,3770 S Hualapai Way,Las Vegas,NV,89147,36.1212929,-115.3143618,3.5,54,American (Traditional),Sports Bars,American (New)
Cy6HvDPRvFfHZcci_7LglA,Wii Play Games,"3310 S Nellis Blvd, Ste 10",Las Vegas,NV,89121,36.1289323309,-115.064620972,4.0,49,Tabletop Games,Shopping,Video Game Stores
zts3BpRcpQNNxLKkbC450A,South Blvd,10200 Giles St,Las Vegas,NV,89183,36.0046467,-115.1702887,3.0,40,Real Estate,Apartments,Home Services
GacNUc2uLNv8LEAX2kuynQ,Homeowner Relief Lawyers,"5550 Painted Mirage Rd, Ste 320",Las Vegas,NV,89149,36.261814,-115.2549683,5.0,3,Lawyers,Real Estate Law,Bankruptcy Law
TzpqNdtAZHXuIKf2xS0o2A,Blue Iguana Mexican Express,2880 S Las Vegas Blvd,Las Vegas,NV,89109,36.1378447,-115.1654364,2.0,99,Mexican,American (Traditional),Restaurants
PIDfDHcfgLqMzJ4U62gFmg,Cleopatra's Treasures,1520 S Main St,Las Vegas,NV,89102,36.1524816,-115.1545302,4.5,11,Fashion,Men's Clothing,Used
OYle0xyj_qYZUPCrWfUu_A,Life Time Athletic,10721 W Charleston Blvd,Las Vegas,NV,89135,36.158222,-115.32778,3.5,169,Active Life,Sports Clubs,Trainers
5ZycN-P0OFArrdKftWVwaw,My Mechanic Auto Service,2250 S Maryland Pkwy,Las Vegas,NV,89104,36.1457760997,-115.137718307,4.0,33,Oil Change Stations,Automotive,Auto Detailing
TmN3YRnzEUR_tLt3bC4MCA,Admiral Pool Solutions,4262 Blue Diamond Rd,Las Vegas,NV,89139,36.1697096,-115.1236952,3.0,15,Contractors,Home Services,Pool Cleaners
O2pffJ2u2DNA-zQWjVCV6A,LV Nails,"5601 N Tenaya Way, Ste 101",Las Vegas,NV,89130,36.2636158,-115.2513918,2.5,27,Beauty & Spas,Nail Salons,""
3VuBA3rR-RIPdQHRv10brA,Mirabella Apartments,2850 E Bonanza Rd,Las Vegas,NV,89101,36.1749037,-115.1101117,2.5,3,Apartments,Real Estate,Home Services
zcgArjObRzQRH6MaqTPDmQ,Cafe Nikki,3801 S Las Vegas Blvd,Las Vegas,NV,89109,36.099039,-115.17044,2.0,3,Restaurants,Cafes,American (Traditional)
lLXvHPd7NqdSTnaetMPWHQ,Inscriptagraphs Sports & Entertainment Memorabilia,3667 Las Vegas Blvd S,Las Vegas,NV,89109,36.1090085573,-115.172585559,5.0,4,Sporting Goods,Shopping,Hobby Shops
iyGRO414K8h3BK9A-cmKfw,Total Health Essentials,"1700 E Desert Inn Rd, Ste 109",Las Vegas,NV,89169,36.1299713,-115.1291559,4.0,4,Health & Medical,Food,Specialty Food
QUR_fNwYoTUk-sH7VMlTPA,El Jesse Auto Repair,3071 North Nellis Blvd,Las Vegas,NV,89115,36.2159003,-115.0627446,2.5,9,Towing,Auto Repair,Automotive
qAz6G72Xnrgxnep6mKUnWg,Fatburger,6775 W Flamingo Rd,Las Vegas,NV,89103,36.1140874,-115.2404642,2.5,83,Burgers,American (Traditional),Fast Food
vgHkiLBoLp68h7n-MschPg,Boulevard Trophy,5007 Tamarus St,Las Vegas,NV,89119,36.0989253,-115.1328371,5.0,11,Shopping,Trophy Shops,""
7tZm-Yf08WSwWvF5TvpTiw,Innovative Pain Care Center,"9920 W Cheyenne Ave, Ste 110",Las Vegas,NV,89129,36.2186017,-115.3118427,2.5,23,Chiropractors,Doctors,Health & Medical
k2ziklmYwa_9q3ofXEKOuw,Worley Music,7643 Houston Peak St,Las Vegas,NV,89166,36.3004802,-115.3297816,5.0,3,Shopping,Musical Instruments & Teachers,""
m2QQNcBKeZIFYy16lVMogw,Raising Cane's,1915 N Rock Springs Dr,Las Vegas,NV,89128,36.1944211,-115.2468132,3.5,105,Chicken Shop,Food,Restaurants
5i5sLQPOkBAE5CoimgiK1g,Painted Desert Golf Club,5555 Painted Mirage Rd,Las Vegas,NV,89149,36.2620095,-115.2577668,3.0,35,Restaurants,Active Life,Golf
1ovbMDi9FV3iaue8ewyfpA,Natalya Piano Classes,"7500 W Lake Mead Blvd, Unit 9619",Las Vegas,NV,89128,36.1973681,-115.2578289,5.0,4,Shopping,Musical Instruments & Teachers,""
IawgxOz6viUlb7BGBZhwcw,Instyle Nails & Lashes,"7175 W Lake Mead Blvd, Ste 154",Las Vegas,NV,89128,36.195502,-115.2482722,3.5,64,Eyelash Service,Skin Care,Beauty & Spas
ElJHCNyp5xCfAN4X5CzNMg,The Computer Guys Las Vegas,"3571 E Sunset Rd, Ste 208",Las Vegas,NV,89120,36.0713129103,-115.09706679,5.0,3,Professional Services,Graphic Design,IT Services & Computer Repair
vw6WWSFqJmeeQr-MUpAMUg,Don Tortaco Mexican Grill,"430 E Silverado Ranch, Ste 100",Las Vegas,NV,89123,36.0146944418,-115.154298041,3.0,75,Restaurants,Mexican,""
URRDNLJg4tnQYDvJDVxCVQ,Addison Landscapes,5470 Cameron St,Las Vegas,NV,89118,36.0905368,-115.2038509,3.5,28,Lighting Fixtures & Equipment,Landscape Architects,Landscaping
GNF3j2Hn5uRk4I_Uslorcw,Desert Lights Realty,"1820 E Warm Springs, Ste 110",Las Vegas,NV,89119,36.0583224458,-115.127279369,4.0,4,Real Estate Services,Real Estate Agents,Home Services
_ki-51g5W8beGcqvzVALfw,Johnnie Walker RV Center,4784 Boulder Hwy,Las Vegas,NV,89121,36.1169836,-115.0702223,4.5,47,Auto Parts & Supplies,Automotive,Body Shops
k5ddmLvAKKw9zSusRPM2cQ,Poppa Naps BBQ,,Las Vegas,NV,89121,36.1165487,-115.0881146,5.0,104,Food Stands,Hot Dogs,Caterers
749EpR01CQCa-6BEtFZtNQ,Aaron Brothers Art and Framing,9765 W Charleston Blvd,Las Vegas,NV,89117,36.1589043,-115.3088008,4.5,16,Art Supplies,Shopping,Arts & Crafts
ei0F_tW9EsXI0iQOv95HVA,Las Vegas-La Express,4150 N Pecos Rd,Las Vegas,NV,89115,36.235317,-115.096366,2.5,3,Transportation,Hotels & Travel,Airport Shuttles
44tjMHhONQgSBa0SW3C0zg,Texas Market,5020 Broadbent Blvd,Las Vegas,NV,89122,36.0974279,-115.0297371,3.0,6,Grocery,Food,""
_3PAk1If6bfnqG9W1W52TA,We Do Systems,"8565 S Eastern Ave, Ste 150",Las Vegas,NV,89123,36.0340166,-115.1200854,5.0,4,IT Services & Computer Repair,Web Design,Security Systems
N4t78qF2C5jqYBjNr0j3_w,Pho T,"5040 Boulder Hwy, Ste 120",Las Vegas,NV,89122,36.1111032,-115.0641991,3.5,134,Vietnamese,Restaurants,""
-GDmL5qxpwwoiM77SvNqxQ,Spirals Hair & Nail Studio,8544 Del Webb Blvd,Las Vegas,NV,89134,36.2106462222,-115.280496952,3.0,9,Beauty & Spas,Hair Salons,Hair Stylists
tBtn2DZAB-yi4budb0BsLQ,Fremont Medical Centers,"9499 W Charleston Blvd, Ste 150",Las Vegas,NV,89117,36.1584261,-115.3023029,2.5,7,Family Practice,Doctors,Health & Medical
TUHSWoffOGce5E5jjvb95g,Cash Factory USA,"6965 S Rainbow Blvd, Ste 130",Las Vegas,NV,89118,36.0622661,-115.2433866,4.0,7,Check Cashing/Pay-day Loans,Financial Services,Jewelry
9dz6ZYUDCqtD67LSPTLApQ,McDonald's,5200 S Fort Apache Rd,Las Vegas,NV,89148,36.0992898501,-115.297798812,2.5,21,Restaurants,Fast Food,Burgers
fw_sFBdhOQteWsoPewdi0Q,Monark Premium Appliance Co.,"7370 S Dean Martin Dr, Ste 401",Las Vegas,NV,89139,36.0564563,-115.1819785,2.0,4,Kitchen & Bath,Appliances,Shopping
DV13F0bhe55dV1AhwoO50g,Beauty Bar,517 Fremont St,Las Vegas,NV,89101,36.1686668396,-115.140098572,3.0,199,Nightlife,Bars,Music Venues
Xou-d48412njLx4oaKs31A,Red Rock Eyecare,6436 N Decatur Blvd,Las Vegas,NV,89131,36.2781188,-115.2063759,1.5,7,Health & Medical,Optometrists,""
ox7ZRUvtCwFEhrG38lo3tg,I Foot SPA,"6120 W Tropicana Ave, Ste A-9",Las Vegas,NV,89103,36.1013213,-115.225783,2.0,4,Massage,Beauty & Spas,Health & Medical
tWjFg2E9ztJt_LuLUDOJKQ,Dunham Jiu Jitsu,1320 E Pebble Rd,Las Vegas,NV,89123,36.0291377,-115.135407,5.0,27,Martial Arts,Active Life,Trainers
ahFTjMK3YiEcXtnGHFLXlA,Yasmin Hair Salon,"1820 S Rainbow Blvd, Ste 100",Las Vegas,NV,89146,36.151314,-115.242279,4.5,6,Hair Removal,Hair Salons,Beauty & Spas
sSmt7JFTDNCcK1KfMVO2hw,Mickie Finnz,"425 Fremont St, Ste 120",Las Vegas,NV,89101,36.1689181,-115.1415925,2.5,224,Music Venues,Restaurants,Bars
iFS2W1pj0z3BuuotiD3haA,Groomingdales,6712 W Cheyenne Ave,Las Vegas,NV,89108,36.2182871,-115.2428884,3.0,57,Pets,Pet Stores,Pet Groomers
cbOsasex5EmQEy554-Fz0Q,Pancho's Mexican Food,4886 W Lone Mountain,Las Vegas,NV,89130,36.2466964851,-115.209172256,3.0,17,Mexican,Restaurants,""
YJpyA-dNMAjLKVHXlEkoQQ,New ABC Auto Repair Center,4585 W Nevso Dr,Las Vegas,NV,89103,36.1134,-115.203731,3.5,6,Auto Repair,Automotive,""
h0DGHCwV6Yqv_iNr8Da-JQ,Richter Lawson MD,"601 S Rancho Dr, Ste D34",Las Vegas,NV,89106,36.1632769,-115.1719568,2.0,3,Health & Medical,Medical Centers,""
1NjEKMltuzp9U4UleGZruQ,The Spa at Tuscany,255 E Flamingo Rd,Las Vegas,NV,89169,36.1133965,-115.1600873,4.5,24,Massage Therapy,Beauty & Spas,Massage
NjAylAjRBRO1kgcgvyfB6g,5 Star Carpet Cleaning,9580 W Reno Ave,Las Vegas,NV,89148,36.0966068,-115.3012245,3.5,6,Carpet Cleaning,Local Services,""
w04H9UpMveISa287FA4Zjg,Wedding DJ Plus,,Las Vegas,NV,89148,36.0612353,-115.2896852,5.0,15,Wedding Planning,Event Planning & Services,Photo Booth Rentals
-mLGVF1rNoeMz6q0vnrpPQ,Christina Cova Simmons - Berkshire Hathaway Home Services,"8850 W Sunset Rd, Ste 200",Las Vegas,NV,89148,36.0717819,-115.2847169,5.0,6,Real Estate Services,Real Estate,Home Services
3dLHLQ7KxPv7AAejrL5ukw,Humble Bee Beauty Studio,7355 S Buffalo Dr,Las Vegas,NV,89113,36.0544534379,-115.261980057,5.0,60,Eyelash Service,Hair Extensions,Sugaring
E8ulOD8EftkXNODKNVdElw,Loft,3663 Las Vegas Blvd S,Las Vegas,NV,89109,36.1090610119,-115.169539195,4.0,4,Shopping,Accessories,Fashion
e3BHo0i1_jE7TWyo-c93zA,Adeline Bridal,6836 W Charleston Blvd,Las Vegas,NV,89145,36.1591969,-115.2448773,3.0,6,Shopping,Bridal,""
uhQoPguihcZTo8yp5o2ohw,St. Tropez International Buffet,9090 Alta Dr,Las Vegas,NV,89145,36.1691108,-115.2913032,2.5,103,Buffets,Restaurants,""
UWycVJ-T6VGYpAf8fNLImg,Avenue,3033 N Rainbow Blvd,Las Vegas,NV,89108,36.2138454,-115.2436914,3.0,9,Women's Clothing,Shopping,Fashion
DPcLpPpsdWUvfHoreMRxpw,Lee's Discount Liquor,3480 E Flamingo Rd,Las Vegas,NV,89121,36.1158004,-115.099284,4.0,74,Food,Beer,Wine & Spirits
kgmmFwrwictFsDqT42Lxxw,Desert Point Dental,2560 Montessouri St,Las Vegas,NV,89117,36.1428611,-115.2469284,3.0,17,Dentists,General Dentistry,Health & Medical
p2KYPBQopSFMl4Q5eDhSYg,Paramount Glass & Mirror,,Las Vegas,NV,89135,36.1617544937,-115.349727324,5.0,52,Door Sales/Installation,Glass & Mirrors,Home Services
wKxvqWGx9N0wB4Fg7f7Dtg,Cliff's Barber Corral & Wild West Showcase,3330 E Tropicana Ave,Las Vegas,NV,89121,36.1009153,-115.1027506,4.5,75,Barbers,Beauty & Spas,""
9A-SbsQJ9efK57oW3GsAlQ,Jack in the Box,3211 N Rancho Dr,Las Vegas,NV,89130,36.2176761,-115.2131292,3.0,13,Fast Food,Restaurants,""
FGL-4F9q8f1su5gAt8g4CQ,Margoa Aquatic Bodywork,Rainbow Blvd & Vegas Dr,Las Vegas,NV,89108,36.1886034,-115.2422835,5.0,11,Naturopathic/Holistic,Recreation Centers,Chiropractors
N-JxW8wl_LUIjrceSby2rw,Mr Olympia Expo,Las Vegas Convention Ctr,Las Vegas,NV,89109,36.1311282,-115.1511192,4.0,19,Arts & Entertainment,Fitness & Instruction,Festivals
taaYWCkUulZL56qZmS1VzQ,Jack In The Box,2365 E Windmill Ln,Las Vegas,NV,89123,36.0419347,-115.1202268,3.0,12,Restaurants,Fast Food,""
vovAmbZ38jWTb5GfiQoSPw,Marketon,840 N Decatur Blvd,Las Vegas,NV,89107,36.1803493,-115.204595,3.5,17,Grocery,Food,Meat Shops
IWq35Pd1oVG4pQEbCsmcCw,Spectrum Color Printing & Mailing,"5715 W Alexander Rd, Ste 125",Las Vegas,NV,89130,36.2313494,-115.2216625,5.0,20,Local Services,Print Media,Signmaking
W7DwXa_7LNmETFHSQJZ2Lg,Sushi Mon,"8320 W Sahara Ave, Ste 180",Las Vegas,NV,89117,36.1446660205,-115.272705995,3.5,255,Sushi Bars,Japanese,Restaurants
DkORDquJCjRvj-g2tNbmSw,Pizio Helga MD,501 S Rancho Dr,Las Vegas,NV,89106,36.165322,-115.1713564,4.5,3,Optometrists,Health & Medical,""
JWDiG0nSsM7GQ9QFRTxU9w,Glazier's Food Marketplace,8525 W Warm Springs Rd,Las Vegas,NV,89113,36.0544216949,-115.277408257,3.5,482,Restaurants,Delis,Grocery
lrmHXLbA5a8KQrXKoQtCig,Lily Spencer,"10220 W Charleston Blvd, Ste 3, Urban Nest Realty",Las Vegas,NV,89135,36.1606689066,-115.318862532,5.0,3,Real Estate,Real Estate Services,Real Estate Agents
Ctyt6cIbMVzT4jJsIj9H8w,Sprouts Farmers Market,8441 Farm Rd,Las Vegas,NV,89131,36.2999084708,-115.282239988,5.0,12,Restaurants,Juice Bars & Smoothies,Salad
583u2YN3KLBJyx4R3oFb7A,DT Nails,"6415 S Fort Apache Rd, Ste 180",Las Vegas,NV,89148,36.0714231622,-115.29868176,3.5,47,Nail Salons,Beauty & Spas,""
OZ5o9gSLzxbxW_hS2RxH1A,Verizon Wireless,8680 W Warm Springs Rd,Las Vegas,NV,89148,36.0561222,-115.2812612,3.0,16,Shopping,Electronics,Mobile Phones
O2q-r9xU6e4VdT0klRAj7Q,Coronado Bay Club Apartments,7600 S Jones Blvd,Las Vegas,NV,89139,36.051102,-115.224024,2.5,15,Real Estate,Home Services,Apartments
XKo3y41cF6euqS7I6AX_1Q,Teriyaki Boy Healthy Grill,"7320 S Rainbow Blvd, Ste 100",Las Vegas,NV,89139,36.0554138,-115.2414854,4.0,133,Asian Fusion,Fast Food,Restaurants
BngF3_mY7_YqdlVZ8lk4Hg,Bartholomew Photography,,Las Vegas,NV,89146,36.135635,-115.2304131,5.0,24,Event Photography,Session Photography,Photographers
lXCmTGagqHuPgaeN2g2P1Q,Marcos Pizza,5061 E Sahara Ave,Las Vegas,NV,89142,36.1438977,-115.0641217,3.5,30,Pizza,Restaurants,""
JE0UYOdeJmgBEskbfGzSBQ,Wells Fargo Bank,"4626 S Maryland Pkwy, Ste B",Las Vegas,NV,89119,36.1056907,-115.1368546,4.0,14,Financial Services,Banks & Credit Unions,""
MECLQGC_vGzQL-zVLhTFZA,Moneytree,9275 West Flamingo Rd,Las Vegas,NV,89147,36.1146034,-115.2938028,4.5,3,Title Loans,Financial Services,Installment Loans
4T4DEudSIZw-Bo1CMv3UeA,Michelle O'Bannon- The Wax Shack,"Scandals Salon, 4235 S Fort Apache, Ste 100",Las Vegas,NV,89147,36.1121198,-115.2979189,5.0,42,Waxing,Skin Care,Beauty & Spas
GElyqrPe8b9qheujL2vS_w,Bobby's Motor Works,"3863 S Valley View Blvd, Unit 21",Las Vegas,NV,89103,36.1207908504,-115.191237666,5.0,6,Auto Parts & Supplies,Automotive,Auto Repair
3ewy0nTvlxfV0Tkr9KVSkA,Sur La Table Cooking Class,1980 Festival Plz Dr,Las Vegas,NV,89135,36.1500216,-115.3331687,3.0,20,Shopping,Cooking Classes,Arts & Crafts
GK4BlrFVauOMsT0TjSwiTg,Warm Springs Surgical Center,"3235 E Warm Springs Rd, Ste 101",Las Vegas,NV,89120,36.0567508,-115.1027314,5.0,7,Surgeons,Health & Medical,Doctors
t1Azq5wUOYkmhAkyQNUkAw,Mrs Laurie Psychic Readings,425 E Fremont At,Las Vegas,NV,89101,36.1692999,-115.1416812,3.5,6,Life Coach,Supernatural Readings,Psychics
1PVFYjySeMsHUYnshzpAGw,Piranha Nightclub,4633 S Paradise Rd,Las Vegas,NV,89169,36.105471,-115.151648,3.0,256,Bars,Gay Bars,Dance Clubs
FLqJua9_ig5KChNlaLpQBQ,Vitality Bowls,"7170 N Durango Dr, Ste 130",Las Vegas,NV,89149,36.2912661954,-115.287338054,4.5,24,Coffee & Tea,Acai Bowls,Juice Bars & Smoothies
t0NuDgcenAsgHbJl8cLBmA,The Law Office of Daniel C Allen,"8430 W Lake Mead Blvd, Ste 100",Las Vegas,NV,89128,36.1987797,-115.2792303,5.0,4,Lawyers,Professional Services,Divorce & Family Law
U8afCPSblJ_kagrU6nghqQ,Desert Breeze Aquatic Facility,8275 W Spring Mountain Rd,Las Vegas,NV,89117,36.1248408199,-115.271496017,3.5,22,Active Life,Parks,Swimming Pools
sDo1ssWX_t-yLpNAJIJWHw,Craig Discount Mall,4821 W Craig Rd,Las Vegas,NV,89130,36.2375123158,-115.208612345,2.0,3,Fashion,Shopping,Women's Clothing
ye-FYma5h1gNgpKJzCy-Zw,Charlie Cheap Car,"5015 W Sahara Ave, Ste 126",Las Vegas,NV,89146,36.1434644,-115.2096787,4.5,55,Automotive,Car Dealers,""
cJq087T4mHnADzspL3MclQ,Simplicity Laser Hair Removal,"7591 W Washington Ave, Ste 140",Las Vegas,NV,89128,36.1805557094,-115.25898218,3.0,65,Beauty & Spas,Laser Hair Removal,Skin Care
RNCrhNeJVJ3WXqxAs-qpLQ,Sears Home Appliance Showroom,"7930 W Tropical Pkwy, Ste 150",Las Vegas,NV,89149,36.271082,-115.267944,2.0,9,Home Services,Shopping Centers,Shopping
J8_AGg7Pb6s4B75MHBMEUQ,Tropical Smoothie Cafe,"4262 Blue Diamond Rd, Ste 103",Las Vegas,NV,89139,36.0380218,-115.1968084,2.0,205,Food,Juice Bars & Smoothies,""
LQNrsH1ctqV256-v5v4jdQ,Sunnys Chicken & Fish,865 N Lamb Blvd,Las Vegas,NV,89110,36.1801633,-115.0799247,4.0,110,Waffles,Southern,Comfort Food
NW9LYNSSPF-CZuREmTqS2A,Las Vegas RaZoR Adventures,6845 Speedway Blvd,Las Vegas,NV,89115,36.2776070298,-115.022127536,4.5,16,RV Rental,Race Tracks,Active Life
BzwyOdbalyK6n7jyJAySJw,Lift Up Garage Doors Las Vegas,"444 E Sahara Ave, Ste B",Las Vegas,NV,89104,36.144062,-115.150458,1.0,3,Garage Door Services,Home Services,""
9p-cpmHaga-EXyc6ZzYCcQ,Velveteen Rabbit,1218 S Main St,Las Vegas,NV,89104,36.156592376,-115.153890252,4.5,287,Arts & Entertainment,Cocktail Bars,Lounges
w9gr1-mA-7zBHPjPL87Nsg,Magnolia's Veranda,202 E Fremont St,Las Vegas,NV,89101,36.1703839974,-115.143929597,3.0,173,American (Traditional),Restaurants,""
wsHKXPO2n-zykhlB6BG3QA,"Caroline A Bobbett, DDS","8540 S Eastern Ave, Ste 120",Las Vegas,NV,89123,36.0338484689,-115.117862854,4.5,9,General Dentistry,Cosmetic Dentists,Dentists
oJujreJoOoskuA09JJ39FQ,McDonald's,836 N Nellis Blvd,Las Vegas,NV,89110,36.1748728,-115.0616907,2.0,9,Fast Food,Restaurants,Burgers
zBD6zc8YU-TA0_KJmN1tpA,Rosati's Pizza,3370 S Hualapai Way,Las Vegas,NV,89117,36.1284285,-115.3144745,3.5,152,Pizza,Italian,Salad
zRiySWQJ6zIkv8Vm3SHcpA,Nails by Thalya,"10895 S Eastern Ave, Ste 110",Las Vegas,NV,89052,35.9945397,-115.1010434,5.0,9,Nail Technicians,Nail Salons,Beauty & Spas
gNhxs9nPUSkVBSSIRQOgaA,India Masala,3200 S Las Vegas Blvd,Las Vegas,NV,89109,36.1272241,-115.1715512,4.0,119,Indian,Fast Food,Pakistani
pfzdsClIpTROIwW2O0iJgQ,Aldana Tire,3440 N Rancho Dr,Las Vegas,NV,89130,36.2213683,-115.2152267,4.0,9,Tires,Automotive,""
EljsXu6sfEz7FVm7dkvsdA,Hands In Motion,3683 Lucido Dr,Las Vegas,NV,89103,36.123107,-115.192051,5.0,11,Beauty & Spas,Massage Therapy,Massage
MqYYYNA-ZYvV-1w5qcmMoA,Aureole,3950 S Las Vegas Blvd,Las Vegas,NV,89119,36.0912561066,-115.176482499,3.5,650,American (Traditional),Seafood,American (New)
ADgY5il9S_VOaTzwPa32TA,Tuscany Apartments,725 S Hualapai Way,Las Vegas,NV,89145,36.1627185,-115.3153795,3.5,15,Home Services,Apartments,Real Estate
K76-9ITG_LITsWtyNSrDfg,Silver State Schools Credit Union,170 S Rainbow Blvd,Las Vegas,NV,89145,36.1717888,-115.2448377,2.5,12,Home Services,Banks & Credit Unions,Mortgage Brokers
Dgfq3KUfaWOECGzbCPnFSA,World Famous Glasshouse Carwash,1550 W Oakey Blvd,Las Vegas,NV,89102,36.152791,-115.161287,3.0,6,Automotive,Car Wash,""
9B1Rf_KjWBtTNXwPCmYluw,Starbucks,1940 Village Ctr,Las Vegas,NV,89134,36.1935122234,-115.305812166,4.0,4,Food Stands,Coffee & Tea,Food
ixAh9crILnJ9tM8LhWFhkw,Archi's Thai Bistro,"6345 S Rainbow Blvd, Ste 100",Las Vegas,NV,89118,36.0732064948,-115.243538218,4.0,671,Restaurants,Thai,""
SzBpr6or7BQcjc-e3ARLjw,Greens and Proteins,6375 S Rainbow Blvd,Las Vegas,NV,89118,36.0726226472,-115.24351275,4.0,170,Breakfast & Brunch,Restaurants,Sandwiches
MZCGNXVDwZe53GuF7Ml_KQ,Mattress King of Las Vegas,"4225 Fidus Dr, Ste 108",Las Vegas,NV,89103,36.1130899,-115.2015052,5.0,32,Furniture Stores,Shopping,Home & Garden
07jQarxKd_8J_AJHD5YBqQ,Muscle Maker Grill - Las Vegas,"5765 Centennial Center Blvd, Ste 180",Las Vegas,NV,89149,36.2650228462,-115.259212892,3.5,100,Food,American (New),Gluten-Free
3yXrXG_Zw4QgjXgf0J05fg,The Top Hat & Wand Magic Shoppe,"5115 Dean Martin Dr, Ste 102",Las Vegas,NV,89118,36.0966057,-115.1819149,5.0,3,Hobby Shops,Event Planning & Services,Shopping
wfvLJXiwNu6__LKMu0kfvg,Window Masters,5086 W Post Rd,Las Vegas,NV,89118,36.075581,-115.210192,4.5,22,Window Washing,Home Cleaning,Professional Services
zU9w_xRlQSRIYXxGo-HSOA,Carnegie,3400 Las Vegas Blvd S,Las Vegas,NV,89109,36.120578,-115.173653,3.0,884,Restaurants,Sandwiches,Delis
m8U_z2BO4CZNPNxsyOPhmw,Spank! The Fifty Shades Parody,129 E Fremont St,Las Vegas,NV,89101,36.1700195212,-115.145713538,3.0,3,Performing Arts,Arts & Entertainment,Event Planning & Services
BhZcWHDcsAko1V7eeAPZpg,All City Refrigeration,6955 N Durango Dr,Las Vegas,NV,89149,36.2873119,-115.2895402,3.0,4,Appliances & Repair,Local Services,""
60N91qkHqdFCsyUMd_qVLA,Banner Plus,3005 Silver Canyon,Las Vegas,NV,89031,36.2535052,-115.1812576,4.5,10,Professional Services,Printing Services,Signmaking
dO0KCBji2gSR503kp_e4-g,Starbucks,3755 Spring Mountain Rd,Las Vegas,NV,89103,36.1260589,-115.1895789,3.5,66,Coffee & Tea,Food,""
Uv3gFFpmdL7KXB_xabDrlg,Silver State Carpet Cleaning,"3355 Spring Mountain Rd, Ste 240",Las Vegas,NV,89103,36.1260019,-115.1847736,1.0,37,Carpet Cleaning,Local Services,""
hA6aLakXmCitL0iG8teSrg,"Karen Hom, DDS","7425 W Azure Dr, Ste 110",Las Vegas,NV,89130,36.2735785,-115.2567191,3.0,8,Dentists,Cosmetic Dentists,General Dentistry
S4Mq4M1CfnW9BBc_kpd0Kg,Mark One Apartments,1020 E Desert Inn Rd,Las Vegas,NV,89109,36.130293481,-115.140879571,2.5,6,Apartments,Real Estate,Home Services
g-32bI6DCI0DJh0dD5Y-aQ,99 Cents Only Stores,1325 E Flamingo Rd,Las Vegas,NV,89119,36.114016,-115.136287,3.5,24,Fashion,Party Supplies,Event Planning & Services
SyJoSTaOYxgMS2Ug4rbrCw,Brotherhood Barbershop,"4110 S Maryland Pkwy, Ste 26",Las Vegas,NV,89119,36.1141384,-115.1374011,4.0,10,Hair Salons,Men's Hair Salons,Barbers
v1AE1LLWDOqe8ubOzqKADg,The Original Sunrise Cafe,"8975 S Eastern Ave, Ste 6",Las Vegas,NV,89123,36.0262328,-115.1193237,4.5,726,Restaurants,Breakfast & Brunch,Food
464noDA4m4CYmGRIXWtd5w,Star Trek Convention 2012,Hotel Rio Dr,Las Vegas,NV,89103,36.1169295604,-115.1862216,4.0,5,Festivals,Arts & Entertainment,""
CQA8Xw7DkisIPBQpjeiRsA,Owens Auto Repair,211 N Mojave Rd,Las Vegas,NV,89101,36.1640849,-115.1066319,3.0,4,Auto Repair,Transmission Repair,Automotive
LUghYZ3T-YxSX-bDQxzFmA,Total Nutrition,"10870 W Charleston Blvd, Ste 110",Las Vegas,NV,89135,36.1609354,-115.3335366,5.0,13,Shopping,Nutritionists,Weight Loss Centers
n0bg7kf6HcpFchCtxJyc5A,Mr Chow,3570 Las Vegas Blvd S,Las Vegas,NV,89109,36.1161358642,-115.176520931,3.0,273,Chinese,Restaurants,""
9lqPRnnxUA47dacFK9lhtQ,Va Bene Caffè,"The Cosmopolitan Of Las Vegas, 3708 Las Vegas Blvd S",Las Vegas,NV,89109,36.1095636214,-115.174219705,3.5,189,Cafes,Coffee & Tea,Restaurants
h67mMWvVdHQ0J_maNcXsXg,A Garden Floral,3801 Las Vegas Blvd S,Las Vegas,NV,89109,36.0993826577,-115.171016136,5.0,51,Florists,Flowers & Gifts,Shopping
XmvtwhEjlA0838nhGxccnA,All Valley Pool Repair,2316 Valley Dr,Las Vegas,NV,89108,36.201434,-115.201049,5.0,3,Pool & Hot Tub Service,Home Services,""
EzLSSGlwysYGhLHjG3LoZw,O48 Realty Central,"8860 S Maryland Pkwy, Ste 116",Las Vegas,NV,89123,36.0288076,-115.1349203,3.5,3,Real Estate,Real Estate Services,Property Management
_RMnqrCFbYUPRzc58fPR3w,Precision Specialty Pharmacy,"2775 S Jones Blvd, Ste 100A",Las Vegas,NV,89146,36.1390862,-115.2255962,2.5,6,Doctors,Shopping,Health & Medical
Nv8p5Hpf3dfAPx14yoRaBA,Nosh,3645 Las Vegas Blvd S,Las Vegas,NV,89109,36.1143212,-115.1708662,3.5,91,Bagels,Food,Sandwiches
GTR39A2jwNIS_NV8q2r_JA,B&B Ristorante,3355 Las Vegas Blvd S,Las Vegas,NV,89109,36.1230025089,-115.168725629,3.5,755,Seafood,Italian,Restaurants
Ieb8xKQESn--Gan2D5CUKg,Iced Out Barber Shop,"7150 S Durango Dr, Ste 120",Las Vegas,NV,89113,36.0570976905,-115.278736134,4.0,75,Men's Hair Salons,Hair Salons,Barbers
-qJZB0F9Y4uL_DovRBsW4Q,"Norton Jr Alexander, MD","6140 S Fort Apache Rd, Ste 110",Las Vegas,NV,89148,36.0768889,-115.2969858,3.0,8,Health & Medical,Doctors,Obstetricians & Gynecologists
F5BCXUpQpCRPeFmWnQmSJA,Grape Vine Cafe,"7501 W Lake Mead Blvd, Ste 120",Las Vegas,NV,89128,36.1945947597,-115.258703603,4.0,104,Mediterranean,Restaurants,Nightlife
g686ZDjStCn-JpGwSP11Yw,Golden Foot Spa,"3545 Fort Apache, Ste 125",Las Vegas,NV,89147,36.1251674,-115.2975957,3.5,13,Beauty & Spas,Massage,Reflexology
QIKIvHvTTB5oc824gS4CJw,CXD Restoration,,Las Vegas,NV,89110,36.1678611,-115.0406679,5.0,4,Home Services,Damage Restoration,""
WVvqV0cmNR3j7ChPoI74hQ,Soul Food Cafe,"7320 S Rainbow Blvd, Ste 112",Las Vegas,NV,89139,36.055414,-115.241332,3.5,373,Restaurants,Southern,Barbeque
nVHrMUiXqt3bMAia27gRhA,La Cabana,"2800 W Sahara Ave, Ste 5A",Las Vegas,NV,89102,36.145296,-115.1794176,4.5,36,Restaurants,Mexican,""
Ol8pDhE1hCgSmWTZ9ZC1RQ,John Varvatos,"4455 Paradise Rd, Hard Rock Hotel",Las Vegas,NV,89169,36.1100828,-115.1538714,4.0,9,Shoe Stores,Shopping,Men's Clothing
bFwqPlLhcqqMo9VUTYT_8w,Doctors of Technology Computer Repair,"2560 E Sunset Rd, Ste 111",Las Vegas,NV,89120,36.0724882008,-115.114996021,4.5,17,IT Services & Computer Repair,Local Services,""
W89O839U_VvgTqJ5aPK6ZQ,La Bonita Grocery,2405 E Ogden Ave,Las Vegas,NV,89101,36.1649048,-115.1166702,1.5,5,Grocery,Food,""
FTKXq-QLslvI8GRh7qGDsg,Leventhal & Associates,626 S 3rd St,Las Vegas,NV,89101,36.1638902288,-115.147233009,4.0,4,Professional Services,Criminal Defense Law,Personal Injury Law
nOL-gfGGFINwXjZhSKDs6A,No Worries Carpet & Upholstery Janitorial Services,,Las Vegas,NV,89101,36.1697096,-115.1236952,4.0,7,Home Services,Local Services,Carpet Cleaning
nSetUCkW9_Wr4PAcpF4hvg,Brookside,,Las Vegas,NV,89113,36.0563775,-115.2659777,5.0,3,Landscaping,Irrigation,Plumbing
JXAMnijxRrW-jXHGvDJzzg,California Pizza Kitchen,3786 S Las Vegas Blvd,Las Vegas,NV,89109,36.103226,-115.175223,4.0,74,American (Traditional),Restaurants,Pizza
PuKk5oONoN2rLviZnDAPTw,Extra Space Storage,5900 Smoke Ranch Rd,Las Vegas,NV,89108,36.20365906,-115.2218857,3.5,14,Local Services,Self Storage,""
EfvVZXvZGyvowDizZNmVQg,UMC Quick Care - Nellis,61 N Nellis Blvd,Las Vegas,NV,89110,36.160922,-115.0635973,2.5,19,Urgent Care,Health & Medical,Diagnostic Services
TNn1pdSymxhYDOp1otVIvw,Romy Park OD Professional,3615 S Rainbow Blvd,Las Vegas,NV,89103,36.1233546,-115.2461613,4.0,10,Health & Medical,Optometrists,""
5JQNJOCrmmqqmJcSfnPn_w,Mastroianni Fashions,"750 S Rampart Blvd, Ste 11",Las Vegas,NV,89145,36.1647773,-115.2893935,5.0,31,Fashion,Formal Wear,Shopping
eZcCFV-8X91ZSnmB9807bw,The Cheesecake Factory,"750 S Rampart Blvd, Bldg 17",Las Vegas,NV,89145,36.1646282753,-115.28920699,3.5,569,Food,American (New),Restaurants
42yLya7lhe7TQGz3KEdKAw,#1 Hawaiian Barbecue,"5905 S Eastern Ave, Ste 105",Las Vegas,NV,89119,36.0819824,-115.1196025,3.5,32,Restaurants,Hawaiian,Seafood
Mz3_EkiNCg9uT3OoxleS4w,Vitality Family Chiropractic,"1171 S Buffalo Dr, Ste 100",Las Vegas,NV,89117,36.1577402,-115.2630066,5.0,12,Health & Medical,Chiropractors,""
p6nv4wBmfmYzRETUukuUvw,76 Gas,4708 W Charleston Blvd,Las Vegas,NV,89102,36.1593773,-115.2054664,3.5,3,Automotive,Gas Stations,""
qAwKPDRwKvFM4MAhMJo9qg,Glowing Skin,"8751 W Charleston Blvd, Ste 210",Las Vegas,NV,89117,36.1576649336,-115.285631583,3.5,5,Hair Removal,Beauty & Spas,Eyelash Service
EiEaPRsi2AW3j3xraIssrA,Bronze Cafe at The Market,611 Fremont St,Las Vegas,NV,89101,36.1682699,-115.1391277,4.5,95,Restaurants,Vegan,Juice Bars & Smoothies
JoEuXB6ZAqxQkUZhtDc3cg,De Becker Investigations,"9360 W Flamingo Rd, Ste 110",Las Vegas,NV,89147,36.1160046,-115.2961944,4.0,5,Private Investigation,Professional Services,""
le9BJEHMb99NB6AtDwRccQ,Alderus Mortgage,"3841 W Charleston Blvd, Ste 100",Las Vegas,NV,89102,36.157766,-115.191636,4.5,8,Investing,Mortgage Brokers,Financial Services
sOgjPmk_1j1ldcVIBaVOjw,Diva Beauty - A Threading Boutique,2184 N Rainbow Blvd,Las Vegas,NV,89108,36.1989201,-115.2409321,3.5,83,Threading Services,Beauty & Spas,Hair Removal
wroMmmJn18vJCNTL6IwFmw,River North,"410 S Rampart Blvd, Ste 145",Las Vegas,NV,89145,36.1671442509,-115.285978116,4.0,4,Shopping,Home & Garden,Accessories
W6M3kA70puRD8dhqIDtDmw,fresh52 Farmers & Artisan Market,302 S Rampart Blvd,Las Vegas,NV,89145,36.1667834,-115.2861968,3.5,51,Farmers Market,Food,""
jYU4Nd71giCWpLuj5JIxgg,Aloha Nails,6166 W Flamingo Rd,Las Vegas,NV,89103,36.115367,-115.226848,4.0,54,Hair Removal,Waxing,Eyebrow Services
-jGA3ADqqv0PyB7Mbo-Zsw,Mountain Springs Saloon,9350 Williams Ranch Rd,Las Vegas,NV,89161,36.020588267,-115.508899175,4.0,51,Nightlife,Dive Bars,Bars
xP8X_6PJ8KBBXVrIcKEx0A,Family Furniture,3300 S Jones Blvd,Las Vegas,NV,89146,36.1286971,-115.2244199,3.5,5,Shopping,Furniture Stores,Mattresses
19umlhmVB9O3njIBfRAe8g,Fiesta Rancho,2400 N Rancho Dr,Las Vegas,NV,89130,36.2015702,-115.1951924,2.5,89,Hotels & Travel,Arts & Entertainment,Hotels
e3PBfbtXUjMziX6XGsOMoA,Cafe Sanuki,"4821 Spring Mountain Rd, Ste G",Las Vegas,NV,89102,36.1259770357,-115.207057334,4.5,110,Cafes,Restaurants,Soup
gRFfN-UVouI4TvaphjSGLg,Appliance Repair Experts,"3231 North Decatur Blvd, Ste 225",Las Vegas,NV,89130,36.2175850963,-115.209409967,4.0,106,Appliances & Repair,Appliances,Home & Garden
tWxyljcVt_90Ue7et2u_Fg,Las Vegas Metro Police,6767 Spencer St,Las Vegas,NV,89119,36.067039,-115.129172,3.5,10,Public Services & Government,Police Departments,""
dhSggLvSrljcUxARFF1yqQ,GTS Wireless,4570 W Spring Mountain Rd,Las Vegas,NV,89102,36.1265800096,-115.203157044,2.5,3,Shopping,Local Services,Electronics Repair
UdC4xRKTFQPOhkc6vPVwvA,Loose Caboose,4045 S Buffalo Dr,Las Vegas,NV,89147,36.1153986,-115.2626207,3.5,8,Restaurants,"",""
JpE8ZE_wAsr2elVLoyFQOg,Fork&Knife Kitchen,,Las Vegas,NV,89120,36.0833352,-115.0999753,5.0,7,Restaurants,Food,Food Delivery Services
ElvlTQ3OTikqLX1GqzpaYA,Flamingo Chateau Apartments,6570 W Flamingo Rd,Las Vegas,NV,89103,36.1160994,-115.2358257,2.0,4,Real Estate,Apartments,Home Services
eDK7ns2bB8pmQCoZMy3Idg,San Salvador Restaurant,2211 S Maryland Pkwy,Las Vegas,NV,89104,36.1457682,-115.1366586,3.5,47,Latin American,Salvadoran,Mexican
f796Wc_e_9yoSOXY7dCo5Q,Michele Kubiak - Signature Real Estate Group,"9525 Hillwood Dr, Ste 180",Las Vegas,NV,89134,36.1866982249,-115.304068554,5.0,8,Home Services,Real Estate Agents,Real Estate Services
YN76vxzi2iYcNTCr0tZ_kw,Mamma Mia!,3801 S Las Vegas Blvd,Las Vegas,NV,89109,36.0993783,-115.1710285,4.5,6,Arts & Entertainment,Performing Arts,""
2i_nei4sC6QRoAIC_GfN4Q,Black Jack Bail Bonds,721 S Main St,Las Vegas,NV,89101,36.163786,-115.1509759,2.0,5,Local Services,Bail Bondsmen,""
xBXHQqF-xChQLpj48H6VZA,Treasure Tours of Nevada,"7575 W Washington Ave, Ste 127-113",Las Vegas,NV,89128,36.1805335,-115.2577339,5.0,3,Hotels & Travel,Tours,""
qs0DoszAS4xB8vSbWeyovA,Half Price Plumber,,Las Vegas,NV,89103,36.104398,-115.214209,3.5,5,Plumbing,Home Services,""
c2CXGmH_Brec8SXQbDJC7w,"Gary M Deshazo, DO",Harbor Island Medical Ctr,Las Vegas,NV,89128,36.199508,-115.278502,4.0,4,Internal Medicine,Doctors,Health & Medical
9G0ETTCB7RUhbUZJUPm3Tg,Target,6480 Sky Pointe Dr,Las Vegas,NV,89131,36.2801017,-115.2643853,3.5,53,Department Stores,Fashion,Shopping
JYh9YwHBFW7_JPQ0IL5h-Q,Neptune Pools,"455 E Pebble Rd, Ste 230128",Las Vegas,NV,89123,36.027001,-115.153401,3.5,5,Home Services,Pool Cleaners,""
aoXb8mDCyb-XbkITiIfYVA,Sbarro,3645 Las Vegas Blvd S,Las Vegas,NV,89109,36.1138813378,-115.168983289,2.5,40,Pizza,Salad,Restaurants
e1IqLqQb8gKNnae7yh_gFw,Roses Today LV,4640 E Flamingo Rd,Las Vegas,NV,89121,36.1157364,-115.0721084,3.5,10,Florists,Shopping,Flowers & Gifts
jpkqU-ipnYPupbNDBs4C6w,Quality Star Imports And Domestic,3930 Spring Mountain Rd,Las Vegas,NV,89102,36.1264752,-115.1928187,5.0,3,Auto Repair,Automotive,""
mvE_5YYENjX-C1oD8nE-iQ,Lee's Painting & Drywall,,Las Vegas,NV,89128,36.1988542,-115.2659777,4.5,42,Painters,Home Services,Drywall Installation & Repair
j2cw1LPA092LTaYfm0DoAA,MC Florist,4266 E Charleston Blvd,Las Vegas,NV,89104,36.1592984,-115.0821699,1.0,3,Flowers & Gifts,Shopping,Florists
JHN09M-CRTGln2rRnS9hWw,McDonald's,3700 Paradise Rd,Las Vegas,NV,89109,36.1221086,-115.1543904,1.5,65,Restaurants,Burgers,Fast Food
mAK6DD0pEOOdQzj08gWW5g,AutoZone,9336 W Sahara Ave,Las Vegas,NV,89117,36.1464299161,-115.29900102,4.0,42,Auto Parts & Supplies,Automotive,""
8rr0djhNKyfqGwewZEAyVg,Vegas Bail,"3421 Sammy Davis Jr Dr, Ste B",Las Vegas,NV,89109,36.1274097,-115.1757978,4.5,6,Bail Bondsmen,Local Services,Lawyers
f5dDF5ZUlL1WIOtsaZ8JtQ,Jiffy Smog,920 N Buffalo Dr,Las Vegas,NV,89128,36.1819372,-115.2593728,3.5,19,Smog Check Stations,Automotive,""
jfAsVQlQommBh8Bz2G_8ow,All Desert Appliances,"222 S Rainbow Blvd, Ste 111",Las Vegas,NV,89145,36.171971,-115.245724,1.5,113,Home Services,Local Services,Appliances & Repair
qX2OxHDlKZecrkLhFeA-eA,Car City,2117 N Nellis Blvd,Las Vegas,NV,89115,36.198287,-115.062716,2.5,3,Car Dealers,Automotive,""
1SE9f6TEV5XhnTuuK01xwA,Wingstop,3910 S Maryland Pkwy,Las Vegas,NV,89119,36.1179083858,-115.137138704,3.0,150,Fast Food,Restaurants,Chicken Wings
URn9u7InvoqmvLHWSlKuoA,Monte's Pizza Restaurant,1288 S Nellis Blvd,Las Vegas,NV,89104,36.1573631,-115.0620928,2.5,7,Restaurants,Pizza,""
U_J7g7iiy3yMoy8Ld8glYA,NEAT Method,,Las Vegas,NV,89138,36.1710616,-115.3667218,5.0,3,Home Organization,Home Services,""
x52eaX43_cXJ_M1NaRc8zg,"Reva Frey, RN","5375 South Fort Apache Rd, Ste 103",Las Vegas,NV,89148,36.0912702,-115.2982716,4.0,37,Health & Medical,Skin Care,Medical Spas
lYFpDTiVMNrpkpFyIEcc_w,I Heart Vape,"5115 Dean Martin Dr, Ste 907",Las Vegas,NV,89118,36.0969383,-115.1816964,5.0,75,Vape Shops,Tobacco Shops,Shopping
w9ZJmje41Igdy8lt9jUSIg,Safeguard Insurance,5225 S Durango Dr,Las Vegas,NV,89113,36.0940123,-115.2800522,5.0,30,Health & Medical,Auto Insurance,Life Insurance
HIrrmfRqhzjLVvcFN0qaQg,Sam Fawaz Photography,9000 Las Vegas Blvd,Las Vegas,NV,89123,36.0263625,-115.1706601,5.0,4,Session Photography,Event Photography,Photographers
nPBG-UbMHDMdcnW-HncZNA,Wing King,"4235 S Fort Apache Rd, Ste 260",Las Vegas,NV,89147,36.1124402912,-115.298360157,4.0,122,Chicken Wings,Restaurants,Pizza
mAVi2Ls_nNV_cwjknGMumQ,Extended Stay America - Las Vegas - Valley View,4270 S. Valley View Blvd.,Las Vegas,NV,89103,36.112808,-115.1896522,2.5,38,Hotels,Hotels & Travel,Event Planning & Services
gdWy-x5KbCbMrwIwI87mMg,Old Homestead Steakhouse,3570 Las Vegas Blvd S,Las Vegas,NV,89109,36.1169221843,-115.175010956,4.0,426,Restaurants,Steakhouses,""
19N9EJCJYLtUYvHFllO_8g,Cartier,"3131 Las Vegas Blvd S, Ste 100",Las Vegas,NV,89109,36.1262661701,-115.166167617,4.5,16,Fashion,Jewelry,Watches
3krH851t5bCLeksZDKASaQ,L.A. Comedy Club,2000 S Las Vegas Blvd,Las Vegas,NV,89104,36.147567111,-115.155331269,4.5,44,Comedy Clubs,Nightlife,""
ZrUal0AEUT-_2etHH-9cfA,Starbucks,1925 Martin Luther King Blvd,Las Vegas,NV,89106,36.193793252,-115.161543395,4.0,18,Food,Coffee & Tea,""
YSHLvvIOg5w7ON396yNmVA,Carnitas y Tortas Ahogadas Guadalajara,640 N Eastern Ave,Las Vegas,NV,89101,36.1756239,-115.1158412,4.5,53,Restaurants,Mexican,Breakfast & Brunch
qPBJrMtf3Ocu8DhRZ8L3tg,Budget Scooter Parts,"3230 W Hacienda, Ste 302",Las Vegas,NV,89118,36.0941406,-115.1837329,5.0,3,Auto Parts & Supplies,Motorcycle Dealers,Automotive
4E3nFi3rrmKbqUjG4erKJw,Avant Garde,Plaza Hotel Main St,Las Vegas,NV,,36.1806703,-115.1404937,3.0,4,Arts & Entertainment,Performing Arts,""
NmKra8gVf9E72UixLkB-BA,Tix4Tonight - Casino Royale,3411 Las Vegas Blvd S,Las Vegas,NV,89109,36.1207056,-115.1717867,3.5,19,Casinos,Ticket Sales,Arts & Entertainment
BaiMK9eDJyefUX5PH_XZcA,Cellairis,"Fashion Show Mall, 3200 Las Vegas Blvd",Las Vegas,NV,89109,36.128213,-115.172998,2.0,11,Mobile Phone Repair,Shopping,Electronics Repair
9phyjc0gaJTRO_YFJDH6mg,JoJo's Jerky,"3635 S Las Vegas Blvd, Ste 26, Grand Bazaar Shops",Las Vegas,NV,89109,36.1141366,-115.1719593,5.0,15,Food,Specialty Food,""
ANANgb9e-BfpOXjDTv_H6Q,Jover Art,"2187 N Decatur, Ste 100",Las Vegas,NV,89108,36.1988632,-115.2064568,4.5,3,Thrift Stores,Shopping,""
UDq8zG2g-rCllKzOcKJO1w,Walgreens,7845 W Flamingo Rd,Las Vegas,NV,89147,36.1141306,-115.2616946,3.0,21,Cosmetics & Beauty Supply,Shopping,Convenience Stores
u9V8A-vhdj3mo9Ewl2DS7w,Fantasy Wedding Cakes,3720 W Tropicana Ave,Las Vegas,NV,89103,36.101694,-115.1892472,4.0,4,Food,Bakeries,""
h7s4MRVvB726jWHCHiQ9kw,Texas de Brazil,6533 Las Vegas Blvd S,Las Vegas,NV,89119,36.0701338,-115.1753307,4.5,507,Venues & Event Spaces,Restaurants,Brazilian
5SpXQTVDVLthQkPtYS-jIg,B&C Camera,4511 W Sahara Ave,Las Vegas,NV,89102,36.1436378778,-115.201531563,3.5,77,Shopping,Photography Stores & Services,""
4DPmZogrtd0P7biom6WEBA,Bernstein & Poisson,320 S Jones Blvd,Las Vegas,NV,89107,36.1692963,-115.2236443,4.0,21,Personal Injury Law,Lawyers,Medical Law
GhciCY3zN51C7nONPq3zSA,Ron Decar's Event Center,1201 Las Vegas Blvd S,Las Vegas,NV,89104,36.1566742,-115.1484497,4.5,38,Jazz & Blues,Arts & Entertainment,Music Venues
yDWoMtwZg2PnXlwdUhjp-A,Domino's Pizza,"2085 N Jones Blvd, Unit 6",Las Vegas,NV,89108,36.1972759,-115.2231899,3.0,21,Restaurants,Pizza,Sandwiches
5vPf9ymJuN3TSDCC8qLcPA,Quickie Smog,4380 S Decatur Blvd,Las Vegas,NV,89103,36.1101408076,-115.207702617,5.0,6,Smog Check Stations,Automotive,""
9xAQPtjOf92wLjMHPWYEpA,Cili,5160 Las Vegas Blvd S,Las Vegas,NV,89119,36.0831298389,-115.175365358,4.0,58,Seafood,Restaurants,Venues & Event Spaces
hyzzZdFi_RKXEGogcEAakg,Harmony Salon and Spa,1725 E Warm Spring Rd,Las Vegas,NV,89119,36.0571445,-115.1286093,4.5,88,Beauty & Spas,Nail Salons,""
4MfI3s8aJJBk2uuLzLIHtQ,Iglesia Ni Cristo,2929 Cedar Ave,Las Vegas,NV,89101,36.1702434,-115.107803,5.0,5,Churches,Religious Organizations,""
fVnw0zpfr4EAlE3wKxJiCg,RejuVAnation,"7997 W Sahara Ave, Ste 103",Las Vegas,NV,89117,36.1427458,-115.2650568,3.5,44,Obstetricians & Gynecologists,Doctors,Beauty & Spas
nO2Dd5DHhL6b50bp9DuASQ,Mail Zone,"8174 S Las Vegas Blvd, Ste 109",Las Vegas,NV,89123,36.0406419,-115.1706429,4.0,15,Post Offices,Shipping Centers,Public Services & Government
xrVzFXD50Rp-KxhKemIV1Q,Eric Auger - America's Choice Realty,"8867 W Flamingo Rd, Ste 200",Las Vegas,NV,89147,36.113815,-115.2850702,5.0,3,Real Estate,Home Services,Real Estate Agents
4EBx2_hpS86431Bwf6xegQ,Galena European Spa,"8053 N Durango Dr, Ste 110",Las Vegas,NV,89131,36.3081072,-115.2791214,5.0,10,Waxing,Beauty & Spas,Skin Care
Mt6A-smQHgDXNtH5k-cP9w,Hair By Roshétta,4280 S Hualapai Way,Las Vegas,NV,89147,36.1120909,-115.3142768,5.0,15,Beauty & Spas,Hair Extensions,Hair Stylists
39DIYiFFGoAwO-pSBDZjDQ,Liberty Tax Service,8425 W Flamingo Rd,Las Vegas,NV,89147,36.1143774,-115.2750085,1.0,3,Financial Services,Tax Services,""
83_BOi7MjSgBado9q4ufnw,Jolley Inspections,9311 Bronze River Ave,Las Vegas,NV,89149,36.292174,-115.299569,4.0,5,Home Inspectors,Home Services,""
voeAEFgO9zGW68I8zg9Ibg,Shanghai Tang,"3500 S Las Vegas Blvd, Ste N12",Las Vegas,NV,89109,36.1173432,-115.1763623,4.0,5,Fashion,Home & Garden,Women's Clothing
Yp9w4nhUowBU_IS_StFXbQ,Tableau,3131 Las Vegas Blvd S,Las Vegas,NV,89109,36.1258833751,-115.165145515,4.0,416,French,Restaurants,American (New)
XIgTZdZqJLuaYnaWG3jyFw,Human Nature,The Venetian,Las Vegas,NV,89109,36.1225046314,-115.168848597,4.5,179,Nightlife,Performing Arts,Arts & Entertainment
Mk_NJdCypVpNe6yGgymkbw,Pios Pios Ice Cream Shop,"2660 S Maryland Pkwy, Ste 20",Las Vegas,NV,89109,36.141477489,-115.135794729,4.5,6,Desserts,Latin American,Food
x5lvCJz_x6zW6tDw6l-6Bw,Vegas Valley Introductions,"3790 Paradise Rd, Ste 205",Las Vegas,NV,89169,36.1205728,-115.1543156,4.0,8,Professional Services,Matchmakers,""
fGxfrD19Buyh4ywpfzs_pw,The Mix,6655 W Sahara Ave,Las Vegas,NV,89146,36.1434734,-115.2377133,4.5,6,Radio Stations,Mass Media,Food
uSVmEQp96ePH1HjIuoZe5w,UMG United Management Group,"2775 S Rainbow Blvd, Ste 101C",Las Vegas,NV,89146,36.1395496,-115.243266,2.0,8,Property Management,Home Services,Real Estate
610ioNIyxpPiZuxRwH3Ofw,"Matt Anderson, DC",2590 Nature Park Dr,Las Vegas,NV,89084,36.2884648,-115.1769115,5.0,5,Health & Medical,Chiropractors,""
A0TlTg8p0KdRueixzuFd1Q,Ross Dress for Less,"5915 S Eastern Ave, McCarran Marketplace (Two Phases)",Las Vegas,NV,89119,36.0822208279,-115.121673214,3.5,20,Shopping,Discount Store,Home & Garden
dTgSoGN_cKKqCGpKxaOfNw,Mail Store & More,889 S Rainbow Blvd,Las Vegas,NV,89145,36.1613967,-115.2454123,4.0,10,Shipping Centers,Post Offices,Notaries
_Yquq-u6wp63GOo-Vjk7vA,Cactus Nails & Spa,"3698 W Cactus Ave, Ste 103",Las Vegas,NV,89141,35.9987448085,-115.188825729,4.0,34,Skin Care,Beauty & Spas,Eyelash Service
PKP8t235SAr6TPAkes7JXQ,T&T Tactical,11357 N Decatur Blvd,Las Vegas,NV,89131,36.3526675998,-115.215925924,4.5,14,Active Life,Firearm Training,Specialty Schools
SRjoAfwBUuR7qVJkiH19gA,Mike & Tammi Panos,,Las Vegas,NV,89130,36.2576752,-115.2304131,5.0,9,Real Estate,Home Services,Real Estate Agents
8I2Xb-mksGen0ra2CnUJpw,Love's,12501 Apex Great Basin Way,Las Vegas,NV,89165,36.3817496109,-114.896027627,4.0,25,Gas Stations,Auto Repair,Food
3SjWfxr4lN6c_eKXhFy9RA,Enterprise Rent-A-Car,"3900 N Rch, Ste 108",Las Vegas,NV,89130,36.229171,-115.222828,3.5,27,Car Rental,Hotels & Travel,""
JtA1Qgt5HnC3DfkSNcOnOg,Psychic and Chakra Balancing,,Las Vegas,NV,89135,36.1100428,-115.3667218,5.0,5,Supernatural Readings,Life Coach,Arts & Entertainment
-2L-SXb6OTKdmUkmEb1JAA,Sorrento Villas,3580 E Alexander Rd,Las Vegas,NV,89115,36.2334779,-115.0967104,2.5,3,Real Estate,Apartments,Home Services
2ivGlp_mVzwFaPjatAERXg,Tacos Mexico,1205 E Charleston Blvd,Las Vegas,NV,89104,36.1590999,-115.1361754,2.5,35,Restaurants,Mexican,""
dVOPg7s0OZ4jIfE2d5ndFw,Kristina Kirigin - Messner Reeves,"8945 E Russell Rd, Ste 300",Las Vegas,NV,89148,36.0842053,-115.286834,3.5,3,Divorce & Family Law,Criminal Defense Law,Professional Services
lp0fqDWUE2ykl9fVcxJ7Ww,Nails By Darlene,"7060 W Sunset Rd, Ste 140",Las Vegas,NV,89113,36.0707803,-115.2457721,5.0,15,Nail Salons,Beauty & Spas,""
sCL7AShFRaX7FzVe87KY_Q,Melendez Auto Service & Tire #2,2530 E Tropicana Ave,Las Vegas,NV,89121,36.1002477,-115.1159366,4.0,14,Automotive,Tires,""
2f4Tayz6LdwHJV3yq7iCOQ,Tiffany Maid Service,2636 Westood Dr,Las Vegas,NV,89109,36.1422015,-115.1709886,2.5,5,Professional Services,Office Cleaning,Home Cleaning
Pnu3Mi5sYB3bHKhzryjG3w,StorageOne,2990 S Durango Dr,Las Vegas,NV,89117,36.135338,-115.277044,4.5,6,Home Services,Local Services,Automotive
WpeM87bCUqC4CwDuMGNmBQ,Fantasy Nails Boca Park,"740 S Rampart Blvd, Ste 20",Las Vegas,NV,89145,36.1634547,-115.2893597,2.5,43,Beauty & Spas,Nail Salons,""
tEaW0zgsYihSTjysrpXaWg,Nielsen's Frozen Custard,"9480 S Eastern Ave, Ste 100",Las Vegas,NV,89123,36.0173949524,-115.117697865,4.5,413,Food,Ice Cream & Frozen Yogurt,""
FfCsAyS7KOwqNGvSC9Rarg,Mattress Firm Beltway Marketplace,"9210 S Eastern Ave, unit 100",Las Vegas,NV,89123,36.0221337,-115.1178707,4.0,5,Shopping,Home & Garden,Mattresses
LEFL9vmC0Zn2ZBR4qbhTrQ,Great Clips,5655 Centennial Center Blvd,Las Vegas,NV,89149,36.2644807,-115.2573056,3.5,13,Beauty & Spas,Hair Salons,""
ttyES_e7ej6fPjBY8aGapg,Re-Bath of Las Vegas,5195 S Valley View Blvd,Las Vegas,NV,89118,36.095622,-115.190342,2.5,16,Contractors,Home & Garden,Kitchen & Bath
S5aEG99UszLAktTe8mW2Og,Valentino,"3720 S Las Vegas Blvd, Space 223B",Las Vegas,NV,89158,36.1083176,-115.174085,4.0,4,Women's Clothing,Men's Clothing,Shopping
nDuN-Gj1tUgd2VwdMJtZ_A,Good Day Pest Control,"6955 N Durango Dr, Ste 1115-333",Las Vegas,NV,89149,36.2873115,-115.2895403,5.0,4,Pest Control,Local Services,""
38LezjERmeB48zRSqvMoFQ,Martin's Mart Thrift Store,1219 S Main St,Las Vegas,NV,89104,36.1568032687,-115.153553364,4.0,4,Shopping,Thrift Stores,""
wGHL7s27mTI8OLCT9w-jAw,Joy Squad Photo Booths,"6000 S Eastern Ave, Ste 11E",Las Vegas,NV,89119,36.0803627,-115.117568,5.0,14,Photo Booth Rentals,Wedding Planning,Event Planning & Services
LuvXlWr5xorDBRnskHXn9A,Morgan Taylor Jewelers,"7995 W Sahara Ave, Ste 103",Las Vegas,NV,89117,36.1431827,-115.2649684,5.0,84,Shopping,Jewelry,""
y5DqnflilCLvMdKziYM6Uw,cupid's wedding chapel,,Las Vegas,NV,,36.175,-115.136389,4.0,4,Wedding Chapels,Religious Organizations,Event Planning & Services
nbQH8MXjxqsDzHRNTZ8esQ,Zuma Las Vegas,3708 S Las Vegas Blvd,Las Vegas,NV,89109,36.1097544,-115.1738726,4.5,165,Japanese,Bars,Sushi Bars
oXL7Jm7N_dUMKV4Oe-C1lA,Le Central,3655 Las Vegas Blvd S,Las Vegas,NV,89109,36.1123010917,-115.171044923,3.5,26,Lounges,Nightlife,Bars
mr5Ds305PzhExis8MZgziw,Relax Rehab Massage Therapy By Laura Elliott,"8450 W Sahara Ave, Ste 109",Las Vegas,NV,89117,36.1445189,-115.2757054,5.0,27,Sports Medicine,Massage Therapy,Doctors
NlD9SYSTpIIuchENhV4CTw,DexaFit - Las Vegas,6883-A W Charleston Blvd,Las Vegas,NV,89117,36.1590266,-115.2457409,5.0,3,Active Life,Sports Medicine,Nutritionists
xS-XdiAQlSdLtJSdEFKirg,The Avenue,4800 E Tropicana Ave,Las Vegas,NV,89121,36.1008147,-115.06919,1.5,5,Home Services,Apartments,Real Estate
SG2RwUTgKLVNCVLI-jBI7g,Southern Nevada Pest Control,4301 Production Ct,Las Vegas,NV,89115,36.238132,-115.095231,3.5,6,Pest Control,Local Services,""
77IBo88YuhFRo87e-LjOow,Las Vegas Ticket Pros,"4100 W Flamingo Rd, Ste 2750",Las Vegas,NV,89103,36.115926,-115.1952149,5.0,8,Arts & Entertainment,Event Planning & Services,Hotels & Travel
Q0G5BrPcz63f3eNj0dASIQ,Tokyo Discount,"6475 N Decatur Blvd, Ste 120",Las Vegas,NV,89131,36.2768952141,-115.207665185,4.5,56,Discount Store,Toy Stores,Gift Shops
na4Th5DrNauOv-c43QQFvA,Bellagio Hotel,3600 S Las Vegas Blvd,Las Vegas,NV,89109,36.1140656,-115.1730043,3.5,2780,Hotels,Arts & Entertainment,Hotels & Travel
Da6_mToH_MY1bWnC3xF0tw,Mariscos El Dorado,2021 E Charleston Blvd,Las Vegas,NV,89104,36.1591481589,-115.120803572,4.0,40,Mexican,Restaurants,Dance Clubs
VI2Fkyaup73hrbrwn95ztw,Jiffy Lube,4320 S Durango Dr,Las Vegas,NV,89147,36.1109229,-115.2784394,4.0,77,Automotive,Oil Change Stations,""
krChZkDau_Zvjjhr5dxeLg,Lobby Bar,3730 Las Vegas Blvd S,Las Vegas,NV,89103,36.1073485,-115.1765836,4.0,32,Lounges,Nightlife,Bars
YwVxEG1z30GQ0cZKvbqcyQ,Stewart Title of Nevada Holdings,"376 E Warm Springs Rd, Ste 190",Las Vegas,NV,89119,36.057517,-115.1552512,5.0,3,Home Services,Mortgage Brokers,Real Estate
CT1prdRwpRGfzQnlmsO2hw,Train With Gabe,7980 West Sahara Ave,Las Vegas,NV,89117,36.1446797,-115.2652577,5.0,10,Weight Loss Centers,Health & Medical,Trainers
cUdjFc25TA3fLkRa8PMSHg,The Sliding Door Company,"6825 W Russell Rd, Ste 100",Las Vegas,NV,89118,36.0844989,-115.2412497,4.5,9,Interior Design,Home & Garden,Home Decor
Phyz3Iu3OccH32Spvi_bPw,Las Vegas Spaw,"5693 S Jones Blvd, Ste 111",Las Vegas,NV,89118,36.0865254,-115.2262491,5.0,125,Pet Sitting,Pet Services,Pet Groomers
zJLkbPcEpYpkbU_aLsXtMQ,The Restaurant at Platinum,211 E Flamingo Rd,Las Vegas,NV,89169,36.1138052,-115.1630001,3.0,7,Restaurants,American (New),""
aSTbcgpukbikp0OGWLYb3A,renu casual furniture renovators,3060 Business Ln,Las Vegas,NV,89103,36.0412531,-115.0277835,2.0,4,Handyman,Shopping,Home Services
azxeH9W14hzFnZyuOm8JdQ,Chophouse & Brewery,1198-1000 Sir Patrick Ave,Las Vegas,NV,89119,36.0858850095,-115.137501955,3.0,178,Sports Bars,Nightlife,Bars
UcLWukRMTfZa0AlCyx34IQ,The North Face Outlet,525 S Grand Central Pkwy,Las Vegas,NV,89106,36.1649415,-115.1558773,4.5,10,Shoe Stores,Sports Wear,Sporting Goods
oZVmuFr8fQIXCDp0GF0ScQ,Jim Wegman,1333 N Buffalo Dr,Las Vegas,NV,89128,36.185567,-115.260752,1.0,3,Real Estate Services,Real Estate,Home Services
JBBWW2qnDajH-_mgxQcIXQ,Goorin Bros.,3545 Las Vegas Blvd S,Las Vegas,NV,89109,36.1179305873,-115.172757048,4.5,40,Accessories,Hats,Fashion
wCIW8uGsyT-ETFdqto7_Zg,Avraham Metal,"1820 E Sahara Ave, Ste 101",Las Vegas,NV,89104,36.1448258649,-115.124439932,5.0,3,Real Estate,Home Services,Commercial Real Estate
SqYcTQ66UThroCdYCFo8bA,D&C Automotive,169 N Gibson Rd,Las Vegas,NV,89014,36.03931,-115.030536,5.0,7,Oil Change Stations,Auto Repair,Automotive
Xn7h361BR99zR2H73DEXjw,Cloud Chem-Dry,"1027 S Rainbow Blvd, Ste 192",Las Vegas,NV,89145,36.1597531,-115.2451829,5.0,3,Carpet Cleaning,Local Services,""
aUc1gQmIwv1sQKt2u4AWPA,St Joseph Husband of Mary Roman Catholic Church,7260 W Sahara Ave,Las Vegas,NV,89146,36.1442895,-115.2515106,4.0,21,Churches,Religious Organizations,""
HGI_BSyQRGrSmzLkf_bmZQ,Tina Buswell Photography,,Las Vegas,NV,88901,36.18,-115.14,5.0,3,Photographers,Session Photography,Event Photography
T1ReG3jnqY23IzFjNtvHsw,Smoke Chief,"8020 S Rainbow Blvd, Ste 120",Las Vegas,NV,89139,36.0411742,-115.2411534,3.5,3,Tobacco Shops,Shopping,""
i8FmR82LvegTPAeDZ5lUIw,Dental Plus,"3650 S Decatur Blvd, Ste 33",Las Vegas,NV,89103,36.1235575,-115.2075378,5.0,12,General Dentistry,Dentists,Health & Medical
xmY0pzNvZKEzuN0XEqeV5w,QQ Foot Spa,6162 W Flamingo Rd,Las Vegas,NV,89103,36.115465,-115.226764,4.0,34,Beauty & Spas,Reflexology,Massage
ST-IVOkIRq-DAyTD0e9DKw,Manila Sunshine Restaurant,1428 E Charleston Blvd,Las Vegas,NV,89104,36.1584662,-115.1342683,3.5,3,Restaurants,Filipino,""
HjMpqBNfB9gyd7t0M0mhcg,Las Vegas Property Experts,"1200 S 4th St, Ste 100",Las Vegas,NV,89104,36.1574468,-115.1503399,4.0,4,Home Services,Real Estate,Real Estate Agents
KC2YYwIPYocLEVlpLROaYQ,Four Seasons Landscaping & Tree Service,,Las Vegas,NV,89129,36.2330997,-115.2719048,4.5,13,Tree Services,Landscaping,Home Services
uAqXhs9p2la0tKgGyTk-0Q,Doubletree by Hilton Hotel,7250 Pollock Dr,Las Vegas,NV,89119,36.058477,-115.144844,3.5,73,Hotels & Travel,Hotels,Event Planning & Services
hojZyJk1Wf2UE2CpG7cgIg,Freddy's Frozen Custard & Steakburgers,9809 S Eastern Ave,Las Vegas,NV,89183,36.0110778809,-115.11932373,4.0,353,Fast Food,Ice Cream & Frozen Yogurt,Food
FJQ1vHzk6RkVNEf-Du2Tsg,Syndicate Mixed Martial Arts,"6980 W Warm Springs Rd, Ste 190",Las Vegas,NV,89113,36.0557865,-115.2450434,4.5,63,Fitness & Instruction,Active Life,Gyms
memEfE8NkM7iQ07ClDw0Jw,Boca Park Dental,"1000 S Rampart Blvd, Ste 13",Las Vegas,NV,89145,36.1601913056,-115.289691669,4.0,22,Dentists,General Dentistry,Cosmetic Dentists
Gen0ei06dGq13OJ8DRXUjg,Metro Pizza,1395 E Tropicana Ave,Las Vegas,NV,89119,36.1003454,-115.1342997,4.0,351,Restaurants,Pizza,Italian
2id3ckJSNJqA-7C5eZ31HQ,Halloween City,5720 Centennial Center Blvd,Las Vegas,NV,89149,36.2657352,-115.2600128,3.0,6,Uniforms,Shopping,""
yB7zHDBqpu5U5TpaWpR6Hw,WHASN Southern Hills,"6080 S Fort Apache Rd, Ste 110",Las Vegas,NV,89148,36.0781431,-115.2961992,2.5,38,Doctors,Obstetricians & Gynecologists,Health & Medical
l_ETc25FQ1ai7FgPu8Vh9Q,Wells Fargo Bank,3433 S Maryland Pkwy,Las Vegas,NV,89169,36.1272179,-115.1377874,2.0,12,Financial Services,Banks & Credit Unions,""
CrTbzS1sdzgnBlJU6fYKpw,"Sheldon Freedman, MD","653 N Town Center Dr, Ste 308",Las Vegas,NV,89144,36.1802745825,-115.316449482,4.0,23,Doctors,Urologists,Health & Medical
IXIBwq-A2tkpxMWtbUoocQ,Las Vegas Shutter Company,"5375 Procyon St, Ste 101",Las Vegas,NV,89118,36.0923599,-115.1884214,3.0,8,Shades & Blinds,Shutters,Home Services
0B2XK9dZJRBGeSVytHT6DQ,Protech702 Textile & Floor care,4650 W Oakey Blvd,Las Vegas,NV,89102,36.1526698,-115.2053379,5.0,4,Home Services,Local Services,Carpet Cleaning
mb_KPLQ-wry4sjnIzscdmg,Mesa Dental,"4280 S Hualapai Way, Ste 101",Las Vegas,NV,89147,36.1123059525,-115.314201257,5.0,12,General Dentistry,Cosmetic Dentists,Health & Medical
1UmAo-UZoDcAkHd0O2kfsg,Madd House Tattoo,557 E Sahara Ave,Las Vegas,NV,89104,36.1434938258,-115.149244552,4.0,8,Beauty & Spas,Tattoo,""
JAQt91Gn7qNGBZSToovBGw,Judy Gardner - Realty One Group,"8395 W Sunset Rd, Ste 190",Las Vegas,NV,89113,36.0694317,-115.2742002,5.0,6,Home Services,Real Estate,Real Estate Agents
t5ZNVudjZCAVmjc6m6FMVA,Coach,3327 Las Vegas Blvd S,Las Vegas,NV,89109,36.1232910361,-115.167703915,4.0,4,Shopping,Leather Goods,Accessories
RLaIYJ9bOkKel-Fw6mbYWg,Glo Salon,"8665 W, Fl amingo",Las Vegas,NV,89147,36.1138469,-115.2806243,4.5,9,Hair Salons,Beauty & Spas,""
oDQG-l5jts3-M2r9xKquyA,Dairy Queen,"7785 N Durango Dr, Ste 100",Las Vegas,NV,89131,36.3027192,-115.2822117,2.5,48,Ice Cream & Frozen Yogurt,Fast Food,Food
5SnAbwORt0-F2dmyAvYBZA,The Learning Linq,"321 N Buffalo, Ste 110",Las Vegas,NV,89145,36.1763169,-115.2608337,5.0,4,Active Life,Summer Camps,Educational Services
48vnBJK0B95JpO0_OMrTQw,No Cover Nightclubs,4575 Dean Martin Dr,Las Vegas,NV,89103,36.1069761,-115.1824623,4.5,287,Music Venues,Arts & Entertainment,Event Planning & Services
ruwtUF73lYV-Yjul5AS26A,La Costa Restaurant,870 Sierra Vista Dr,Las Vegas,NV,89169,36.127192,-115.144873,4.0,6,Restaurants,Mexican,""
ElpZj4yY5Yn95JNk4Bx98A,Travel Plus Paris,Paris Hotel,Las Vegas,NV,,36.175,-115.136389,3.0,3,Hotels & Travel,Travel Services,""
28n56WCqvPLQJUl0LJHVQg,Einstein Brothers Bagels,"170, Fl amingo",Las Vegas,NV,89109,36.1144594485,-115.174157023,2.0,6,Food,Bagels,""
_7M4uJJGP794V_zupZu5hg,TAM of Nevada,"3900 Paradise Rd, Ste 205",Las Vegas,NV,89169,36.1183123634,-115.154201624,4.5,12,Special Education,Adult Education,Medical Centers
mZEj6ggkh2l2QlbCJACaYw,MD Nail Spa,"4520 S Hualapai Way, 107-108",Las Vegas,NV,89147,36.1070158,-115.31429,4.5,39,Day Spas,Nail Salons,Skin Care
-yApKLEFAvvNyifvpNKWCA,Luv It Frozen Custard,505 E Oakey Blvd,Las Vegas,NV,89104,36.1514658645,-115.151553874,4.0,656,Ice Cream & Frozen Yogurt,Food,""
Bu5w9EoTiFSfjNDrutJ9RQ,Ashwood's Elite Cuts,6027 Sombria Ridge Ave,Las Vegas,NV,89139,36.054281,-115.223976,5.0,5,Men's Hair Salons,Beauty & Spas,Barbers
UdfZdILiA35e5OxdETlFcQ,SnapFanatic,15 Hawk Ridge Dr,Las Vegas,NV,89135,36.1641369,-115.310597,5.0,13,Photo Booth Rentals,Party Equipment Rentals,Photographers
B_WggEKFq-ZFNui8CHPYvA,Soho SushiBurrito,"2600 W Sahara Ave, Ste 115",Las Vegas,NV,89102,36.145214,-115.176443,4.5,687,Asian Fusion,Japanese,Mexican
1kHr1RTkm_J-dfrq-HPBug,Viva El Taco,"6775 E Lake Mead Blvd, Ste 2",Las Vegas,NV,89156,36.195232,-115.0238251,3.5,30,Mexican,Restaurants,""
BQm2v3M8MdoUWtWzVYTDxQ,Backstage Bar & Billiards,601 E Fremont St,Las Vegas,NV,89101,36.1685078,-115.1393839,3.5,71,Arts & Entertainment,Pool Halls,Nightlife
gWiDGFHu3XzHZyiu3skz-g,Tailor & Alterations By Edwin,"6410 N Durango Dr, Ste 120",Las Vegas,NV,89148,36.2776341,-115.2870974,5.0,5,Sewing & Alterations,Local Services,""
k8ocJ_qvnV2OiMatKKEJow,Vegas Best Extensions,"9850 S Maryland Pkwy, Ste 14, #307",Las Vegas,NV,89183,36.0107847,-115.1340187,5.0,8,Hair Extensions,Beauty & Spas,Hair Salons
iedt9HC4wa_XYN1L-Bzz6w,SmartStop Self Storage,9890 Pollock Dr,Las Vegas,NV,89183,36.0102186,-115.1445397,3.5,12,Self Storage,Local Services,""
cDoSFVJWZ-fRjN3ZFzuang,LWH Portraits,Summerlin Pkwy,Las Vegas,NV,89144,36.193947,-115.324173,5.0,3,Photographers,Event Planning & Services,Session Photography
XBEx2FI2GKmsjs7eWNr7Lw,Juice 'N' Go,1735 S Rainbow Blvd,Las Vegas,NV,89146,36.1525834,-115.2435895,4.5,259,Food,Brazilian,Juice Bars & Smoothies
0yKHG1JCthRR6naXwe2-Lg,Farmers Insurance - Gary Orchard,6180 W Charleston Blvd,Las Vegas,NV,89146,36.1594394206,-115.227521659,4.0,4,Insurance,Financial Services,""
O9K_xqrua6sKD9xFlENymg,Dimopoulos Injury Law,"6830 S Rainbow Blvd, Ste 200",Las Vegas,NV,89118,36.0649211069,-115.24172388,5.0,8,Lawyers,Personal Injury Law,Traffic Ticketing Law
7LriwBefkHEQbHg8AiQztA,Las Vegas Skin & Cancer Clinics,"8205 West Warm Springs Rd, Ste 190",Las Vegas,NV,89113,36.05498,-115.271033,3.0,40,Dermatologists,Beauty & Spas,Health & Medical
RwVvwiebTIhv66ZIJ9hZEQ,Home Air Conditioning & Heating,3908 Vegas Dr,Las Vegas,NV,89108,36.18845,-115.19134,4.0,22,Home Cleaning,Heating & Air Conditioning/HVAC,Home Services
4Odbtgh9g8XUKorRg7MTHg,Italian American Club Restaurant,2333 E Sahara Ave,Las Vegas,NV,89104,36.1454551496,-115.116317666,4.5,157,Dance Clubs,Nightlife,Restaurants
4lO96w5fd2cF-7j5rOWevw,West Coast Dealing School,"6375 S Pecos Rd, Ste 206",Las Vegas,NV,89120,36.0739613,-115.1013241,5.0,3,Bartending Schools,Specialty Schools,Education
jGLb-Czpz_ZCPF2h4P1vbw,Vegas Painters,"3170 Polaris Ave, Ste 20",Las Vegas,NV,89102,36.2173891,-115.2449027,2.5,13,Home Services,Painters,Contractors
fe1-frEQYkHlknn3RrcP8g,Exquisite Nails,"5905 S Eastern Ave, Ste 111",Las Vegas,NV,89119,36.0819824,-115.1196025,4.0,54,Nail Salons,Beauty & Spas,""
e8Zlk5LUziCXkz99-foB0w,First Choice Tree Service,2165 Pama Ln,Las Vegas,NV,89119,36.065912,-115.122417,3.5,25,Landscaping,Gardeners,Irrigation
n1OhVaNV_9U8ZgqXbduUUA,Ken Blumberg - eXp Realty,6671 S Las Vegas Blvd,Las Vegas,NV,89119,36.0661928,-115.1722432,4.0,5,Real Estate,Home Services,Real Estate Agents
3rJJeMOkVi_wEura5UCQqw,Massage Envy - Rock Spring,"7175 W Lake Mead Blvd, Ste 174",Las Vegas,NV,89128,36.19558,-115.248796,3.5,39,Skin Care,Beauty & Spas,Day Spas
Xm2o3PKyf4Y_RF5YvVLgww,Amazing Eyebrow Threading & Henna Art,2381 E Windmill Ln,Las Vegas,NV,89123,36.0405798658,-115.120218495,5.0,66,Makeup Artists,Hair Removal,Beauty & Spas
h1Jq1YlqPyD1mGSW0sjRaQ,Centurylink,2340 E Tropicana Ave,Las Vegas,NV,89119,36.100048426,-115.119145574,1.0,121,Television Service Providers,Professional Services,Internet Service Providers
obIyQY-n3fZAN7FOQ31xOQ,Durango Dental Group,"3140 S Durango Dr, Ste 100",Las Vegas,NV,89117,36.132379,-115.278135,4.0,39,Oral Surgeons,General Dentistry,Cosmetic Dentists
Mufm5Fot_GS2wNx2TpLfcg,Mexitalia X-Press,2880 Las Vegas Blvd S,Las Vegas,NV,89109,36.1378447,-115.1654364,2.0,6,Restaurants,Mexican,""
MVjkFLHNJmbQ-ZTd3QY3nQ,Rika Arepa Express,"3650 E Flamingo Rd, Ste 1",Las Vegas,NV,89121,36.115773504,-115.095736714,4.5,49,Food,Street Vendors,Latin American
UsxSpv63crQ91mCzzYONTA,Storage West Self Storage,2700 E Flamingo Rd,Las Vegas,NV,89121,36.1152725,-115.1136482,4.5,10,Self Storage,Local Services,""
_E36-nDMWizyfEo88CZQ2Q,Nordstrom,"Fashion Show Mall, 3200 Las Vegas Blvd S",Las Vegas,NV,89109,36.1282423233,-115.173004957,4.0,139,Department Stores,Men's Clothing,Fashion
xkVMIk_Vqh17f48ZQ_6b0w,Tom Colicchio's Craftsteak,3799 Las Vegas Blvd S,Las Vegas,NV,89109,36.102642001,-115.168625437,4.0,2091,Steakhouses,Restaurants,Desserts
m0Fpwnva1ozCtcHEDos0dQ,Mediation Around The Table,"8275 S Eastern Ave, Ste 200",Las Vegas,NV,89123,36.0389391,-115.1188132,5.0,14,Mediators,Lawyers,Professional Services
AGYxQ7A2AO7AVsFTW--xuw,Pediped,"6593 Las Vegas Blvd S, Ste 155",Las Vegas,NV,89119,36.0682346,-115.1758636,4.0,10,Shoe Stores,Shopping,Fashion
jMrpr92nMEhe4cC4FF00VQ,Jewelry & Minerals of Las Vegas,410 E Sahara Ave,Las Vegas,NV,89104,36.1441375,-115.1520471,4.0,101,Arts & Entertainment,Shopping,Home & Garden
N9kHPsoo3lFWITcW2kBezg,Body Heat Hot Pilates & Yoga,9026 W Sahara Ave,Las Vegas,NV,89117,36.1451648,-115.2961171,4.5,17,Boot Camps,Yoga,Fitness & Instruction
L-WLy4mO-jZkcYOy03MbxA,Lowest Price On Earth,3111 S Valley View Blvd,Las Vegas,NV,89102,36.1318533,-115.192068,5.0,13,Electronics,Shopping,""
b0WztBYRaswkUARxLQ1aKg,Putter's Bar & Grill,8945 S Las Vegas Blvd,Las Vegas,NV,89123,36.0277338,-115.1731689,4.0,35,Food,Pizza,Nightlife
rai7E_s43a3-oXKJYXHhIw,Vercini,"3663 S Las Vegas Blvd, Ste 455",Las Vegas,NV,89109,36.1107901,-115.1714113,3.5,5,Men's Clothing,Shopping,Fashion
egtaygafjrfGH-Bfo15kvw,Estate Sale Specialists,2251 N Rampart Blvd,Las Vegas,NV,89128,36.2018798,-115.2821347,5.0,5,Local Services,Jewelry,Appraisal Services
xjz22Lw9z7C2ACpiu2d0hA,The Wax Genie,515 Rose St,Las Vegas,NV,89106,36.1654978,-115.167329,5.0,90,Eyebrow Services,Waxing,Skin Care
9SkCjP0DtYCxO-DiYLuCFA,On The Fringe - Studio Salon,"7155 S Rainbow Blvd, Ste 220",Las Vegas,NV,89118,36.05824,-115.243475,4.0,10,Beauty & Spas,Hair Stylists,Hair Salons
OJdufUU3hVabgviIBHksYw,Aloha Kitchen & Bar,"2605 S Decatur Blvd, Ste 109",Las Vegas,NV,89102,36.1425791215,-115.209383432,3.5,449,Karaoke,Restaurants,Bars
_SX5D9ptWjNzaDQOKGWIhw,Spring Fresh Alterations & Cleaners,"6620 W Flamingo Rd, Ste 12",Las Vegas,NV,89103,36.1150697,-115.2366549,5.0,3,Local Services,Sewing & Alterations,Dry Cleaning & Laundry
0NBsEzgEQ5E-CycaFekA3w,Accelerated Dental,"6115 S Rainbow Blvd, Ste 102",Las Vegas,NV,89118,36.0773052,-115.2432495,5.0,4,Beauty & Spas,Teeth Whitening,General Dentistry
5vAe61D-AAjGZBFA4Ep8mQ,Linh's Alterations,"1310 E Silverado Ranch Blvd, Ste 104",Las Vegas,NV,89183,36.014112,-115.1349296,4.5,97,Laundry Services,Local Services,Sewing & Alterations
wo91fMqiWefEsPG5p-g7YA,Andrea's World of Cakes,"8090 S Durango Rd, Ste 107",Las Vegas,NV,89113,36.0420675,-115.2781237,4.5,74,Food,Desserts,Specialty Food
egM5sPImK5pGgNq3_FW7Tg,Carter's Babies & Kids,"855 S Grand Central Pkwy, Unit 1890",Las Vegas,NV,89106,36.1632719,-115.1580364,4.0,6,Shopping,Fashion,Accessories
6zuL7B_DcWw5_gZIAXS0yw,Two-Way Communications,4674 S Valley View Blvd,Las Vegas,NV,89103,36.104806,-115.189817,5.0,3,Shopping,Appliances & Repair,Local Services
tAp4BGfrI1t5x82RR0zHrg,Twilight Designs,7916 Westcliff Dr,Las Vegas,NV,89145,36.1741787,-115.2668777,5.0,13,Lighting Fixtures & Equipment,Landscaping,Home Services
Aq4CJv-yf10SgldWGIh10w,Silverton Blingo Bingo,3333 Blue Diamond Rd,Las Vegas,NV,89139,36.0412834,-115.1833103,2.5,3,Arts & Entertainment,Casinos,Bingo Halls
QVcCGKos7kjFBii-LhICoA,Vinny's New York Seafood Bar & Cafe,"2950 S Durango Dr, Ste 135",Las Vegas,NV,89117,36.1355103,-115.2784417,4.5,4,Food,"",""
bxt1265muthvE1GCSx0k2w,Cardenas Market,2300 E Bonanza Rd,Las Vegas,NV,89101,36.1737306,-115.1180834,3.0,17,Specialty Food,Food,Imported Food
Bs8v8Fx2A8NAJwCgF8tgWQ,Acrylic Tank Manufacturing,"3451 W Martin Ave, Ste C",Las Vegas,NV,89118,36.066631726,-115.186543113,4.0,53,Aquarium Services,Aquariums,Pets
QguIOkpSmfsCqJUYgBbnUw,Vegas Repair,"1641 E Sunset, Ste 109B",Las Vegas,NV,89119,36.089494,-115.138026,4.5,3,IT Services & Computer Repair,Local Services,""
QuyWfGlo_7MR6DbJiCz0EQ,"Tony A Vu, DC",101 S Rainbow Blvd,Las Vegas,NV,89145,36.1605691,-115.3208852,4.0,5,Health & Medical,Chiropractors,""
cPfcqoM3IGcx75D1_I3P0w,The Vision Centers Southwest,"6455 S Rainbow Blvd, Ste 100",Las Vegas,NV,89108,36.0717327,-115.2429631,4.0,4,Health & Medical,Shopping,Optometrists
Vy8TOqwxkhj7Bo74e7fWHQ,White Rock Loop,Red Rock Canyon National Conservation Area,Las Vegas,NV,89161,36.1110149,-115.4493465,4.0,12,Active Life,Hiking,""
KkgnBZj3jRVjCY2H49JRaw,Angelina's Pizzeria - Cheyenne,7790 W Cheyenne Ave,Las Vegas,NV,89129,36.2187596,-115.2645776,3.0,89,Sandwiches,Italian,Burgers
EhRG_sJ2Ro41Nk-dH4SSxQ,Joe DiRaffaele - DG Realty,"6061 S Fort Apache Rd, Ste 140",Las Vegas,NV,89148,36.0780884,-115.2995053,5.0,4,Real Estate Agents,Home Services,Real Estate
3LxIBZ4yhsjeQRbdwOx28w,Escape or Die,3064 W Post Rd,Las Vegas,NV,89118,36.074965,-115.182306,4.5,94,Escape Games,Active Life,""
tlZmJBQ9UWkaI0Zce_KFhg,T-Bird Lounge & Restaurant,9465 S Eastern Ave,Las Vegas,NV,89123,36.0176758,-115.1188775,3.5,107,Bars,Nightlife,American (Traditional)
pv9JzhGa4yL6BoCGEBb5sQ,Whip - Lashes,6340 W Sahara,Las Vegas,NV,89146,36.1449317,-115.2321102,4.5,15,Eyelash Service,Eyebrow Services,Massage
oeP7Ns_F1P_Xqv30sTU43Q,Southern Highlands Preparatory School,11500 Southern Highlands Pkwy,Las Vegas,NV,89141,35.9804419,-115.186784,4.0,4,Elementary Schools,Preschools,Education
_zoDAkHGTUNnAKIpoePgiA,Desert Rose Tattoo Studio,"3421 E Tropicana Ave, Ste J",Las Vegas,NV,89121,36.0993723,-115.0999935,4.0,7,Professional Services,Advertising,Local Flavor
w7-lgMergwG5RS4-SyTHSw,Lone Mountain Taekwondo,4324 N Decatur Blvd,Las Vegas,NV,89130,36.237613,-115.2070719,5.0,3,Taekwondo,Fitness & Instruction,Active Life
OpR1dL0_rt27L0JZ96Jz5A,Terrible Herbst,9991 W Charleston Blvd,Las Vegas,NV,89117,36.1585029,-115.3135592,2.5,13,Automotive,Convenience Stores,Food
NTXXRwV0UNGlEtj-qrNDhw,A Maid for you,5613 S Eastern Ave,Las Vegas,NV,89119,36.087781,-115.119141,1.0,10,Home Cleaning,Home Services,""
qAN2Rqhj7I84qN6iDIoP6g,Platinum Entourage,"6670 S Tenaya Way, Ste 140",Las Vegas,NV,89113,36.0671136331,-115.251420736,4.5,294,Blow Dry/Out Services,Beauty & Spas,Hair Salons
9YGDbwz3e3Fq9fAeIOSszw,Castro Cigars,109 N 4th St,Las Vegas,NV,89101,36.1701618872,-115.141899101,3.5,15,Tobacco Shops,Shopping,""
zYYC8s2vpHeoHSCEwPNkMQ,Bridge Home Inspections,,Las Vegas,NV,89145,36.1683449,-115.2659777,4.0,28,Real Estate,Home Inspectors,Home Services
3rj1qpgFvkRWtAka17mhEQ,Mimi's Cafe,6760 N Durango Dr,Las Vegas,NV,89149,36.2828691328,-115.287154801,3.0,209,French,Restaurants,American (Traditional)
zhZXRtn7Q-jR6l9BFB8FQg,Avalon Realty and Oaktree Management,500 Rose St,Las Vegas,NV,89106,36.166021,-115.168012,3.0,15,Real Estate,Home Services,Real Estate Services
UK2Onb024Azao0DrTHSvhg,Yanni's Greek Grill,"9620 S Las Vegas Blvd, Ste E-7",Las Vegas,NV,89123,36.0148375673,-115.171262962,4.5,310,Restaurants,Ethnic Food,Food
110Yuz4k4AFsuKYlbBT6FA,The Marq at 1600,1600 East University Ave,Las Vegas,NV,89119,36.1095517367,-115.131788239,4.0,3,Home Services,Real Estate,Apartments
cf6rtw3f05DlnJ7muIAEgA,Madame Tussauds Las Vegas,"3377 S Las Vegas Blvd, Ste 2001",Las Vegas,NV,89109,36.1213491686,-115.171090717,4.0,522,Museums,Arts & Entertainment,""
_E8Cu-ZiYP8Kh9mC2td5aQ,iCaptureEvents,,Las Vegas,NV,89134,36.2085091,-115.3133908,5.0,8,Photographers,Event Photography,Event Planning & Services
IBwsVI_sUJ9aKMujhtFqHg,Dog Days Las Vegas,"10430 S Decatur Blvd, Ste 100",Las Vegas,NV,89141,36.00003,-115.2060308,3.5,49,Pet Services,Pet Groomers,Pets
zkzjbMgbbWVWfn7E5yVcEg,Walgreens,6650 E Lake Mead Blvd,Las Vegas,NV,89156,36.196239,-115.0278239,3.5,9,Beauty & Spas,Shopping,Convenience Stores
FKeldilnprVw-pFurmX6Pw,Shades Of Temptations,3750 S Las Vegas Blvd,Las Vegas,NV,89158,36.1020326963,-115.174179489,3.0,11,Adult Entertainment,Nightlife,""
74-eIC6xQljB-DMfyr7r1g,Courtesy Auto Repair & Service,"7035 W Sahara Ave, Ste 500",Las Vegas,NV,89117,36.1436073,-115.2457084,5.0,14,Auto Repair,Automotive,""
cqN1ULADwU4E5nOOKhxgbA,Desert Valley Garage Door Services,9987 Shallot Ct,Las Vegas,NV,89183,36.0082382,-115.1227178,5.0,10,Garage Door Services,Home Services,""
t4EaAby8Tea1XuNcQHgJwQ,Boot Barn - Western Super Store,2280 W Warm Springs Rd,Las Vegas,NV,89119,36.0574014,-115.1742944,4.0,6,Shopping,Women's Clothing,Shoe Stores
ew_LPHk7pMCxK8pTQIGNtg,Angel & Willy's Roadhouse Grill,10950 State Hwy 160,Las Vegas,NV,89161,36.020586184,-115.508670062,3.5,6,Barbeque,Restaurants,Burgers
ut3r-meTqKfkEZBzkdBE6w,Bowlology,3400 S Hualapai Way,Las Vegas,NV,89117,36.127894,-115.314555,4.0,67,Acai Bowls,Poke,Juice Bars & Smoothies
Ez19rh3QYscLLueFrStckQ,Carl's Jr.,5795 S Eastern Ave,Las Vegas,NV,89119,36.084465,-115.119349,3.0,28,Restaurants,Fast Food,""
VLM7QXtwOWn0VZIMSqu5qg,Boulevard Food Court,3755 S Las Vegas Blvd,Las Vegas,NV,89109,36.105606,-115.1719456,4.5,13,Food Court,Restaurants,""
mlr5x0WpfCSjhca5q-hmMA,Smith's,6130 W Tropicana Ave,Las Vegas,NV,89103,36.101333,-115.2264124,3.0,63,Convenience Stores,Gas Stations,Automotive
Qc0l8rZ3nvrcERitgxu8XA,Omelet House,2160 W Charleston Blvd,Las Vegas,NV,89102,36.1594391,-115.1712276,4.5,972,American (Traditional),Breakfast & Brunch,Restaurants
UgVnHUhEwqtr1mmuhuEqEQ,A-1 Fingerprinting Services,"3900 S Hualapai Way, Ste 102",Las Vegas,NV,89147,36.1197682661,-115.314315599,5.0,5,Health & Medical,Notaries,Laboratory Testing
wrnciN8MNwdTvv4gdOsI8A,The Omnitone Recording Studio,"5087 Arville St, Ste C",Las Vegas,NV,89118,36.09775,-115.200098,3.5,3,Recording & Rehearsal Studios,Local Services,""
qg3Ac8KylpN3l2CD3RLhcg,"Cover All Painting and Drywall, LLC",,Las Vegas,NV,89122,36.233048,-115.246776,4.5,3,Painters,Drywall Installation & Repair,Home Services
aKe_9ycmcw7wXmuZpDtCzA,Harmon Crossings,303 E Harmon Ave,Las Vegas,NV,89169,36.106862,-115.158817,4.0,7,Real Estate,Apartments,Home Services
pRy1ylCDiciXzhjVgBC3ZA,Center Bar,"Hard Rock Hotel & Casino, 4455 Paradise Rd",Las Vegas,NV,89169,36.1100828,-115.1538714,4.0,20,Bars,Nightlife,""
rYWbCTwJV14BvcOhHlcD5A,Sniffany & Company,"6115 S Rainbow, Ste 105",Las Vegas,NV,89118,36.0778035549,-115.242986494,3.0,85,Pets,Pet Stores,Pet Services
zZ3XzaG82sL4OU90Mpp60w,Liberty Choice Insurance,"6655 W Sahara Ave, Ste A100",Las Vegas,NV,89146,36.1434734,-115.2377133,5.0,4,Financial Services,Insurance,""
3OtkMJiSW-MzM_gQbMe3eA,Dance Connection,7501 N Cimarron Rd,Las Vegas,NV,89131,36.29733,-115.270268,5.0,3,Performing Arts,Education,Dance Schools
9AB8UbxqHS2LNCLHUB5zDA,Pro Laundromat,"3380 Arville St, Ste E",Las Vegas,NV,89102,36.1287425,-115.1980492,3.0,3,Laundry Services,Local Services,Dry Cleaning & Laundry
csLvBEET6g9k39i51GOH4g,The Strip Crossfit,"4325 Dean Martin Dr, Unit 315",Las Vegas,NV,89103,36.111451708,-115.182799165,5.0,6,Fitness & Instruction,Boot Camps,Gyms
akNU5x1N-8YhqFSc_-On4g,Verizon Authorized Retailer - Victra,5775 S Eastern Ave,Las Vegas,NV,89119,36.085158494,-115.119520426,3.0,13,Electronics,Shopping,Mobile Phones
CNW5hqoO-EpSOReYbWC-Sw,Golden China,"4001 S Decatur Blvd, Ste 28",Las Vegas,NV,89103,36.1172631,-115.2099329,3.5,16,Chinese,Restaurants,""
Fg93ZB0xXurEnBICPFcepQ,Sonterra Apts,5050 Tamarus St Ofc,Las Vegas,NV,89119,36.175,-115.136389,1.5,9,Real Estate,Apartments,Home Services
UN_Ea25C6BBKlOC-dvvxoQ,All American Park,Buffalo Dr And Oakey Blvd,Las Vegas,NV,89117,36.1513441,-115.2615273,4.0,15,Playgrounds,Active Life,Parks
zhT6PXyerupZzXL-smu-ZQ,EC Fades,"6430 W Lake Mead Blvd, Ste 155",Las Vegas,NV,89108,36.1963538,-115.2344876,4.5,9,Hair Salons,Beauty & Spas,""
jo8N0lMaaxfXlYtD5wQbkA,Petiamo Pet Salon,"11700 W Charleston Blvd, Ste 155",Las Vegas,NV,89135,36.160319,-115.350778,4.5,107,Pet Stores,Pet Services,Pet Groomers
6p3Hd9FqsgXzju12cRP4mw,Dan's Driveline,5650 Duncan Dr,Las Vegas,NV,89130,36.2284121,-115.2206217,4.5,34,Auto Customization,Automotive,Auto Parts & Supplies
VxpXhPXLRDCEbHu_Rgw2hA,Lady C Leather,4037 W Sahara Ave,Las Vegas,NV,89102,36.1439164,-115.1956815,5.0,37,Leather Goods,Shopping,Lingerie
qUcdv_IREg2KnhqZZB96ug,Waypoint Homes Las Vegas,"5055 W Patrick Ln, Suite 102",Las Vegas,NV,89118,36.078488,-115.21045,2.0,54,Real Estate,Home Services,Real Estate Services
QCHIv0XuBFFLD26inNV5Rg,JCJ Auto Repair,"5115 South Dean Martin Dr, Ste 306",Las Vegas,NV,89118,36.0956189,-115.1829914,5.0,23,Auto Repair,Automotive,Car Dealers
QkSf6Dgn4hYWNfaT6_kd5A,MIX 94.1's Bite Of Las Vegas,8275 W Spring Mtn Rd,Las Vegas,NV,89117,36.1252825947,-115.273580885,3.5,44,Food,Festivals,Nightlife
BKUrPb8a21jhp1a9q9P1aw,Violeta's Organic Spa,"8751 W Charleston Blvd, Ste 190",Las Vegas,NV,89117,36.1576031,-115.2860645,5.0,7,Waxing,Day Spas,Eyelash Service
mbEIPLztF1PFKgopVx6f7g,Pleasant Hills Villas,5575 Pleasant Hill Ave,Las Vegas,NV,89103,36.1106454,-115.2175014,2.5,3,Home Services,Apartments,Real Estate
M8ZgOCNPHROdGvwc4lZA1w,"Revolution Laboratories, LLC","5052 S Jones, Ste 155",Las Vegas,NV,89118,36.096818,-115.224419,1.5,11,Specialty Food,Health Markets,Health & Medical
KBHUaVmXOs-Ht3lB_Cnz9w,Optionz Photography,"4760 W Dewey Dr, Ste 137",Las Vegas,NV,89118,36.089072,-115.2055932,4.5,29,Jewelry,Event Planning & Services,Beauty & Spas
hXKpjMz5g9cjyOYAF8p-Ag,SuperPawn,7585 W Washington Ave,Las Vegas,NV,89128,36.181109,-115.258355,3.0,5,Electronics,Pawn Shops,Jewelry
Oj3cjTHwVU660DFkk7FVLg,99 Cents Only Stores,7239 Spring Mountain Rd,Las Vegas,NV,89117,36.1251472,-115.2499639,3.0,31,Party Supplies,Professional Services,Event Planning & Services
OxSnZHrenjb_79rQdYnLxQ,Furniture World,3565 E Flamingo Rd,Las Vegas,NV,89121,36.114676,-115.097573,3.0,21,Furniture Stores,Home & Garden,Baby Gear & Furniture
lRg7jfcYXAciGmDSNKFJBA,Advanced Urgent Care,"9975 S Eastern Ave, Ste 110",Las Vegas,NV,89183,36.0072952,-115.1151882,2.0,80,Urgent Care,Health & Medical,Dentists
Gf9mN7rhAyt5k4hEedWOxQ,Children's Bone And Spine Surgery,"1525 E Windmill Ln, Ste 201",Las Vegas,NV,89123,36.0422759,-115.1313834,3.0,32,Health & Medical,Doctors,Spine Surgeons
cqODkq5Fyxe_Y_MtPgvj0g,Tesla Supercharger,6605 S Las Vegas Blvd,Las Vegas,NV,89119,36.0703304923,-115.172809884,5.0,4,EV Charging Stations,Automotive,""
RD-PqIwfJdprEnPwS9GS8Q,Mosaic Salon Boutique,"9550 S Eastern Ave, Ste 170",Las Vegas,NV,89123,36.0146775,-115.1173773,4.5,147,Day Spas,Fashion,Beauty & Spas
xcL8PNpRygalnejv0bp1-w,Tacos El Compita 3,4455 E Tropicana St,Las Vegas,NV,89121,36.0997216522,-115.076853675,4.5,26,Mexican,Restaurants,""
Jsc9FXBWmJiyHuMI0Hgtmg,Top Spa & Nails,"10170 W Tropicana Ave, Ste 158",Las Vegas,NV,89147,36.1016026,-115.3142208,4.0,11,Day Spas,Nail Salons,Beauty & Spas
XiHSPjuMLIFDAiFW_K5K4w,Kid's Castle Day Care,3153 S Eastern Ave,Las Vegas,NV,89169,36.132539,-115.118877,4.0,7,Preschools,Education,Local Services
LkzTeSeOP0_JNwP8IE-v7Q,Rodolfo Gonzalez Law,"3175 S Nellis Blvd, Ste A",Las Vegas,NV,89121,36.1323129245,-115.065862164,5.0,3,Immigration Law,Lawyers,Criminal Defense Law
UD6dphWsP_hC-hebM7MNSA,The Pick-Up Artist Junk Removal,"3481 Desert Cliffs St, Ste 102",Las Vegas,NV,89129,36.2277316094,-115.298005264,5.0,104,Junk Removal & Hauling,Local Services,""
6adlyp5W2NPhTFfXgWr55g,Nevada Youth Football League,1551 S Buffalo Dr,Las Vegas,NV,89117,36.1555084,-115.2649268,1.5,6,Active Life,Amateur Sports Teams,""
oF7d6fiDw7CHgcJPwXaxaQ,U.S. Bank,8050 S Rainbow Blvd,Las Vegas,NV,89139,36.042273,-115.2418622,3.0,6,Financial Services,Banks & Credit Unions,""
TDK7VhW6PGYLFkpq5TJXvg,Anna Alterations,2963 Industrial Rd,Las Vegas,NV,89109,36.1437627,-115.1649563,5.0,3,Local Services,Sewing & Alterations,""
ZIWa-FjEe1JmhtOC7G4kgw,Pipe Zone Wholesale,3969 Renate Dr,Las Vegas,NV,89103,36.1256642,-115.1926489,5.0,4,Tobacco Shops,Shopping,""
lAR6Lj6-zBxQNqflZt0zTQ,Buca di Beppo,412 E Flamingo Rd,Las Vegas,NV,89169,36.1149437266,-115.151831657,3.0,339,Event Planning & Services,Italian,Pizza
ZW0EGqx6jeBe_7ihmLykBQ,Jimmy John's,7331 W Lake Mead Blvd,Las Vegas,NV,89128,36.194748,-115.252614,2.0,32,Restaurants,Sandwiches,""
9RRRtQ6sRcjsnKe091H9lw,Complex Care Hospital - Tenaya,2500 N Tenaya Way,Las Vegas,NV,89128,36.2055888282,-115.250826253,2.0,15,Health & Medical,Hospitals,Rehabilitation Center
CK62JZi0UY5JeHHQyf0ffQ,Jalapeno Grill,"5201 W Charleston Blvd, Ste 110",Las Vegas,NV,89146,36.1588302,-115.2111651,3.0,3,Restaurants,Mexican,""
Ei713CM05bBUe7rHn85Bqw,Rosenblum Law Offices,"7375 S Pecos Rd, Ste 101",Las Vegas,NV,89120,36.056413,-115.102202,5.0,18,Lawyers,Criminal Defense Law,Professional Services
lcPyhwecLnx3ylTGHTTpKw,Paradise Nail Bar,"8370 W Cheyenne, Ste 106",Las Vegas,NV,89123,36.2197686735,-115.276121646,3.0,54,Beauty & Spas,Nail Salons,""
dR33Tp5PBB5oOuZagcTrXQ,"Sarah Longson, MFT - Longson Therapy","7371 W Charleston Blvd, Ste 130",Las Vegas,NV,89117,36.1582499097,-115.251748951,5.0,5,Counseling & Mental Health,Health & Medical,""
AZlnpvILz5cEWJifjr2CSQ,Roma Deli II and Wine Shop,8524 W Sahara Ave,Las Vegas,NV,89117,36.1445144,-115.277522,4.0,142,Restaurants,Italian,Delis
yqR0nvuxTAOwA4HvveX34g,Citibank,3990 S Maryland Pkwy,Las Vegas,NV,89119,36.117211,-115.137353,2.5,9,Financial Services,Banks & Credit Unions,""
LtjnI_wOJF1bWG7oVtVwjA,Purrfect Auto Service,"4005 E Desert Inn Rd, Unit A",Las Vegas,NV,89121,36.1292009,-115.0875234,3.0,16,Oil Change Stations,Auto Repair,Smog Check Stations
m_Ya56gz3GYv_moJIGnCkg,American Family Insurance - Matthew Meron Agency,"6440 N Durango Dr, Ste 144",Las Vegas,NV,89149,36.2777317,-115.2865776,3.5,3,Insurance,Auto Insurance,Home & Rental Insurance
xDvl_i1g1HCJ4EmIRmwfqg,Denny's,450 Fremont St,Las Vegas,NV,89101,36.1699142351,-115.141176581,3.0,137,Sandwiches,Breakfast & Brunch,American (Traditional)
r8hF3kwnZzxTo1IYNcI6rg,El Sombrero Mexican Bistro,807 S Main St,Las Vegas,NV,89101,36.1627231,-115.1512318,4.5,395,Nightlife,Mexican,Bars
wbNWiuY5IDbvouNQAZsS-Q,Desert Valley Roofing,"5985 Hauck St, Ste 101",Las Vegas,NV,89118,36.0810319,-115.2100497,5.0,37,Contractors,Roofing,Home Services
XEvOc1jhPosMn69hoqiYPQ,Highlands Nails & Spa,11350 Southern Highlands Pkwy,Las Vegas,NV,89141,35.9836695,-115.1901616,3.5,81,Nail Salons,Beauty & Spas,""
w4wVe8zXILVo6-Mjzq7E1w,Sean Balasuriya Realtor® - Realty One Group,"8395 W Sunset Rd, Ste 190",Las Vegas,NV,89113,36.0693455,-115.274233,5.0,4,Home Services,Commercial Real Estate,Real Estate Agents
jCzWhebWMQodN-IncrXFmA,Foxtail Nightclub,2535 Las Vegas Blvd S,Las Vegas,NV,89109,36.1422754,-115.1562447,3.0,42,Dance Clubs,Nightlife,""
iBXr0ZovsxN70LzPS3kkRA,Verizon,7030 S Rainbow Blvd,Las Vegas,NV,89118,36.0607732195,-115.241909942,3.0,8,Home Services,Shopping,Professional Services
o978wbGfXvZgxbeQJCaq7A,The UPS Store,"6440 Skypointe Dr, Ste 140",Las Vegas,NV,89131,36.2797947417,-115.26162871,4.0,17,Local Services,Shipping Centers,Notaries
JTFFtWy_chbsHTs95yD_2Q,Cafe Bellagio,3600 S Las Vegas Blvd,Las Vegas,NV,89109,36.1121439816,-115.176715856,3.5,814,Restaurants,Sandwiches,Burgers
9jm72na8vEqA3slrz3L2Dw,AG Jeans,"3200 S Las Vegas Blvd, Ste 1155",Las Vegas,NV,89109,36.127224,-115.1715513,5.0,11,Women's Clothing,Shopping,Fashion
S2bGqPoTjUc2ywC9FYuBsw,H2 EAU,2000 Fashion Show Dr,Las Vegas,NV,89109,36.1265059261,-115.171051025,3.5,12,Nightlife,Diners,Restaurants
CGj2i5UE72de3P7uVZl_Pg,The List Salon,"8889 S Eastern Ave, Ste 130-140",Las Vegas,NV,89123,36.0280822,-115.1194211,4.5,71,Skin Care,Hair Salons,Beauty & Spas
c2-rudnIbl35L_8azIWaKg,Newark & Newark,608 S 8th St,Las Vegas,NV,89101,36.1617736,-115.1414729,5.0,3,Bankruptcy Law,Professional Services,Lawyers
etFoNPRkScrQvuAQCFV4Hg,Accomplished Home Inspections,,Las Vegas,NV,89107,36.1688235,-115.2185573,5.0,3,Home Services,Home Inspectors,""
tsYriuDpdtaTju7LUANDzg,Panda Express,2625 S Eastern Ave,Las Vegas,NV,89102,36.141812,-115.119151,3.0,19,Fast Food,Chinese,Restaurants
